SALE TYPE,SOLD DATE,PROPERTY TYPE,ADDRESS,CITY,STATE OR PROVINCE,ZIP OR POSTAL CODE,PRICE,BEDS,BATHS,LOCATION,SQUARE FEET,LOT SIZE,YEAR BUILT,DAYS ON MARKET,$/SQUARE FEET,HOA/MONTH,STATUS,NEXT OPEN HOUSE START TIME,NEXT OPEN HOUSE END TIME,URL (SEE http://www.redfin.com/buy-a-home/comparative-market-analysis FOR INFO ON PRICING),SOURCE,MLS#,FAVORITE,INTERESTED,LATITUDE,LONGITUDE
PAST SALE,May-10-2018,Vacant Land,7420 Eagle Point Dr,Brownwood,TX,76801,49500,0,,Feather Bay,,,,680,,29,Sold,,,http://www.redfin.com/TX/Brownwood/7420-Eagle-Pt-76801/home/55068278,NTREIS,13198651,N,Y,31.819879,-99.042394
PAST SALE,July-24-2017,Vacant Land,2523 N Main Blvd,Brownwood,TX,76801,6000,0,,Brownwood Heights,,,,970,,,Sold,,,http://www.redfin.com/TX/Brownwood/2523-N-Main-Blvd-76801/home/74982961,NTREIS,13134825,N,Y,31.743489,-98.998505
PAST SALE,November-6-2017,Vacant Land,Oak Point Dr,May,TX,76857,8500,0,,Oak Point Ph Two,,21998,,865,,21,Sold,,,http://www.redfin.com/TX/Unknown/Oak-Point-Dr-76857/home/74988960,NTREIS,13526081,N,Y,31.871163,-99.008155
PAST SALE,July-13-2017,Vacant Land,Deepwater Rd,Brownwood,TX,76801,125000,0,,Deepwater Estates,,119267,,981,,9999,Sold,,,http://www.redfin.com/TX/Brownwood/Deep-Water-Rd-76801/home/74986725,NTREIS,13321539,N,Y,31.857587,-98.998992
PAST SALE,July-24-2017,Vacant Land,Lake Point Dr,May,TX,76857,4600,0,,Oak Point Ph Two,,27878,,970,,21,Sold,,,http://www.redfin.com/TX/Unknown/Lake-Point-Dr-76857/home/74990948,NTREIS,13193347,N,Y,31.877265,-99.007587
PAST SALE,February-6-2018,Vacant Land,17583 Mustang Dr,Brownwood,TX,76801,33527,0,,see private remarks,,279394,,773,,,Sold,,,http://www.redfin.com/TX/Brownwood/17583-Mustang-Dr-76801/home/112712206,NTREIS,13510628,N,Y,31.668878,-98.968841
PAST SALE,April-7-2017,Vacant Land,7701 County Road 550,Brownwood,TX,76801,35000,0,,"James Kenney, Surv 624, Abst",,417958,,1078,,,Sold,,,http://www.redfin.com/TX/Brownwood/7701-Co-Rd-550-76801/home/87702439,NTREIS,13467056,N,Y,31.826037,-99.112901
PAST SALE,July-31-2017,Vacant Land,County Road 536,Lake Brownwood,TX,76801,100000,0,,Minton,,106722,,963,,,Sold,,,http://www.redfin.com/TX/Unknown/Unknown-76801/home/114024270,NTREIS,13610352,N,Y,31.859732,-99.044419
PAST SALE,August-2-2018,Vacant Land,6361 County Road 551,Brownwood,TX,76801,119900,0,,,,1430902,,596,,,Sold,,,http://www.redfin.com/TX/Brownwood/6361-Co-Rd-551-76801/home/114062175,NTREIS,13612488,N,Y,31.810554,-99.100447
PAST SALE,February-16-2018,Vacant Land,13 Oak Hill Cir,Brownwood,TX,76801,32500,0,,Oak Hill,,37026,,763,,,Sold,,,http://www.redfin.com/TX/Brownwood/13-Oak-Hill-Cir-76801/home/104463233,NTREIS,13352382,N,Y,31.646001,-99.0039321
PAST SALE,February-16-2018,Vacant Land,14 Oak Hill Cir,Brownwood,TX,76801,32500,0,,Oak Hill,,34412,,763,,,Sold,,,http://www.redfin.com/TX/Brownwood/14-Oak-Hill-Cir-76801/home/104464864,NTREIS,13352389,N,Y,31.646035,-99.004808
PAST SALE,February-6-2018,Vacant Land,75 Oak Hill Cir,Brownwood,TX,76801,99500,0,,Kerr County School Land,,79192,,773,,,Sold,,,http://www.redfin.com/TX/Brownwood/75-Oak-Hill-Cir-76801/home/112999205,NTREIS,13529388,N,Y,31.640637,-99.0028774
PAST SALE,,Vacant Land,Co Rd 594,,TX,76801,40000,,,,,45999,,,,,,,,http://www.redfin.com/TX/Unknown/Co-Rd-594-76801/home/74989605,,,N,Y,31.836385,-99.078204
PAST SALE,September-11-2017,Vacant Land,16650 Hwy 377 S,Brookesmith,TX,76827,116995,0,,Coopers Prairie Sub,,1577743,,921,,,Sold,,,http://www.redfin.com/TX/Brookesmith/16650-U-S-377-76827/home/118266143,NTREIS,13621807,N,Y,31.5056486,-99.1279642
PAST SALE,December-22-2017,Vacant Land,20 County Road 178,Bangs,TX,76823,78000,0,,Bangs,,871200,,819,,,Sold,,,http://www.redfin.com/TX/Unknown/20-76823/home/143010044,NTREIS,13657111,N,Y,31.715006,-99.163222
PAST SALE,May-30-2018,Vacant Land,1010 Gantt St,Bangs,TX,76823,26000,0,,Sunset Terrace,,81109,,660,,,Sold,,,http://www.redfin.com/TX/Bangs/1010-Gantt-St-76823/home/55060208,NTREIS,13685052,N,Y,31.7149136,-99.1207091
PAST SALE,May-4-2018,Vacant Land,FM 1849,Bangs,TX,76823,17900,0,,SEE REMARKS,,146362,,686,,,Sold,,,http://www.redfin.com/TX/Bangs/FM-1849-76823/home/142955051,NTREIS,13651720,N,Y,31.719807,-99.101568
PAST SALE,June-28-2018,Vacant Land,3030 Lake Shore Dr,Other,TX,76857,27000,,,,,33750,,631,,15,Sold,,,http://www.redfin.com/TX/Other/3030-Lake-Shore-Dr-76857/home/144792277,ACTRIS,7716991,N,Y,31.912997,-99.01535
PAST SALE,October-3-2017,Vacant Land,Oak Point Dr,May,TX,76857,8000,0,,Oak Point Ph Two,,22303,,899,,21,Sold,,,http://www.redfin.com/TX/Unknown/Oak-Point-Dr-76857/home/74988964,NTREIS,13685603,N,Y,31.870809,-99.008702
PAST SALE,May-1-2017,Vacant Land,8060 Hill St,Brownwood,TX,76801,55000,0,,Lake Shore,,21780,,1054,,,Sold,,,http://www.redfin.com/TX/Brownwood/8060-Hill-St-76801/home/55068038,NTREIS,13531643,N,Y,31.83526,-99.097003
PAST SALE,May-22-2017,Vacant Land,656 Oak Point Dr,May,TX,76801,175000,0,,Oak Point Ph Two,,22172,2009,1033,,,Sold,,,http://www.redfin.com/TX/May/656-Oak-Point-Dr-76857/home/107396435,NTREIS,13482431,N,Y,31.8739831,-99.0080614
PAST SALE,March-28-2017,Vacant Land,1ST,Brownwood,TX,76801,2940,0,,Cleveland Add,,22651,,1088,,,Sold,,,http://www.redfin.com/TX/Brownwood/1st-St-76801/home/108521286,NTREIS,13437681,N,Y,31.708595,-98.98
PAST SALE,May-26-2017,Vacant Land,County Road 225,Brownwood,TX,76801,26900,0,,Country Club West Sub,,43996,,1029,,,Sold,,,http://www.redfin.com/TX/Brownwood/Unknown-Unknown/home/113868483,NTREIS,13594091,N,Y,31.59391,-99.011859
PAST SALE,May-4-2017,Vacant Land,County Road 574,Brownwood,TX,76801,21000,0,,Mountain View Oaks Sub,,58588,,1051,,,Sold,,,http://www.redfin.com/TX/Unknown/Unknown-76801/home/112379057,NTREIS,13507100,N,Y,31.815528,-99.073867
PAST SALE,June-29-2018,Vacant Land,3050 Cooks Ln,Early,TX,76802,59995,0,,Twin Hills Sub,,376707,,630,,,Sold,,,http://www.redfin.com/TX/Early/3050-Cook-s-Ln-76802/home/143477059,NTREIS,13850310,N,Y,31.715137,-98.929624
PAST SALE,September-25-2018,Vacant Land,County Road 339,Early,TX,76802,47500,0,,,,1001880,,542,,,Sold,,,http://www.redfin.com/TX/Unknown/Unknown-76802/home/128970264,NTREIS,13630644,N,Y,31.784383,-98.924763
PAST SALE,April-30-2019,Vacant Land,1 Oak Point Dr,Lake Brownwood,TX,76857,55000,0,,Woodbridge Estates,,36154,,325,,21,Sold,,,http://www.redfin.com/TX/Unknown/1-Oak-Point-Dr-76857/home/56302702,NTREIS,12156377,N,Y,31.890912,-98.975548
PAST SALE,April-30-2019,Vacant Land,2 Oak Point Dr,Lake Brownwood,TX,76857,55000,0,,Woodbridge Estates,,35283,,325,,21,Sold,,,http://www.redfin.com/TX/Unknown/2-Oak-Point-Dr-76857/home/56302704,NTREIS,12156391,N,Y,31.891185,-98.975552
PAST SALE,March-6-2019,Vacant Land,21900 State Highway 279,Cross Plains,TX,76443,134000,0,,Scattered Oaks Sub,,880348,2007,380,,,Sold,,,http://www.redfin.com/TX/Cross-Plains/21900-TX-279-76443/home/55041906,NTREIS,14012272,N,Y,32.022816,-99.128397
PAST SALE,August-14-2018,Vacant Land,7 Mesquite Dr,Early,TX,76802,59000,0,,,,312979,,584,,,Sold,,,http://www.redfin.com/TX/Early/7-Mesquite-Dr-76802/home/145866440,NTREIS,13852513,N,Y,31.7131749,-98.9183675
PAST SALE,January-16-2019,Vacant Land,10 Sleepy Oaks Ln,Early,TX,76802,50000,0,,Jenkins Spgs Estates,,435600,,429,,,Sold,,,http://www.redfin.com/TX/Unknown/10-Sleepy-Oaks-Ln-76802/home/147564609,NTREIS,13952593,N,Y,31.747776,-98.888205
PAST SALE,March-28-2019,Vacant Land,6 Sleepy Oaks Ln,Early,TX,76802,27500,0,,Jenkins Spgs Estates,,217800,,358,,,Sold,,,http://www.redfin.com/TX/Unknown/6-Sleepy-Oaks-Ln-76802/home/147558000,NTREIS,13952235,N,Y,31.750458,-98.888726
PAST SALE,April-12-2017,Vacant Land,500 Sunrise St,Early,TX,76802,79000,0,,Patrick Sullivan 17 Abs 827,,436036,,1073,,,Sold,,,http://www.redfin.com/TX/Early/500-Sunrise-Dr-76802/home/55043582,NTREIS,13373713,N,Y,31.7415963,-98.9319944
PAST SALE,June-7-2019,Vacant Land,Single Tree Dr,Early,TX,76802,32500,0,,Singletree Sub,,192535,,287,,,Sold,,,http://www.redfin.com/TX/Early/Single-Tree-Dr-76802/home/147431003,NTREIS,14072232,N,Y,31.763765,-98.931695
PAST SALE,July-11-2019,Vacant Land,4021 County Rd,Early,TX,76802,33000,0,,Singletree,,217800,,253,,,Sold,,,http://www.redfin.com/TX/Early/4021-County-Road-344-76802/home/167080433,NTREIS,14113156,N,Y,31.7716059,-98.919136
PAST SALE,August-27-2019,Vacant Land,615 Longhorn Dr,Early,TX,76802,160000,0,,Sophia J  St John,,43560,2012,206,,,Sold,,,http://www.redfin.com/TX/Early/615-Longhorn-Dr-76802/home/74990283,NTREIS,14067429,N,Y,31.754117,-98.9251452
PAST SALE,September-13-2019,Vacant Land,250 Valley Vis,Early,TX,76801,12000,0,,"BROWN CO SCHOOL LAND, SURVEY 367, ABSTRACT 10",,27966,,189,,,Sold,,,http://www.redfin.com/TX/Early/250-Valley-Vis-76802/home/169055836,NTREIS,14184793,N,Y,31.7675576,-98.9436083
PAST SALE,November-21-2019,Vacant Land,1721 CR 318,Early,TX,76802,45000,0,,Richland Estates,,60331,,120,,,Sold,,,http://www.redfin.com/TX/Early/1721-Co-Rd-318-76802/home/74987523,NTREIS,14138619,N,Y,31.735153,-98.918471
PAST SALE,February-19-2020,Vacant Land,3354 Johnathan Ln,Early,TX,76802,99900,0,,,,170450,2012,30,,,Sold,,,http://www.redfin.com/TX/Early/3354-Johnathan-Ln-76802/home/170025986,NTREIS,14238884,N,Y,31.7576103,-98.8905219
PAST SALE,November-12-2019,Vacant Land,2610 Austin Ave,Brownwood,TX,76801,28000,0,,Parks Estate,,31625,,129,,,Sold,,,http://www.redfin.com/TX/Brownwood/2610-Austin-Ave-76801/home/147659932,NTREIS,13718171,N,Y,31.6963575,-98.9672716
PAST SALE,December-15-2017,Vacant Land,FM 2492/Western Hills Ln,Brownwood,TX,76801,47850,0,,,,381150,,826,,,Sold,,,http://www.redfin.com/TX/Brownwood/FM-2492-Western-Hills-Ln-76801/home/144045008,NTREIS,13710622,N,Y,31.792911,-99.100747
PAST SALE,December-6-2017,Vacant Land,12 acres Fm 586 S,Bangs,TX,76823,42374,0,,Brians Run,,527381,,835,,,Sold,,,http://www.redfin.com/TX/Bangs/12-acres-Fm-586-S-76823/home/141094262,NTREIS,13644403,N,Y,31.697977,-99.148961
PAST SALE,December-8-2017,Vacant Land,County Road 163,Bangs,TX,76823,60000,0,,SEE REMARKS,,871200,,833,,,Sold,,,http://www.redfin.com/TX/Unknown/Unknown-76823/home/113728678,NTREIS,13579538,N,Y,31.702619,-99.168241
PAST SALE,February-20-2019,Vacant Land,15805 County Road 211,Brookesmith,TX,76827,57952,0,,Coopers Prairie Sub,,788872,,394,,,Sold,,,http://www.redfin.com/TX/Brookesmith/15805-County-Road-211-76827/home/146849254,NTREIS,13920255,N,Y,31.5123947,-99.1304493
PAST SALE,March-4-2019,Vacant Land,5727 County Road 153,Bangs,TX,76823,90000,0,,SEE REMARKS,,460037,2012,382,,,Sold,,,http://www.redfin.com/TX/Bangs/5727-Co-Rd-153-76823/home/55068229,NTREIS,14015336,N,Y,31.660565,-99.105917
PAST SALE,December-18-2018,Vacant Land,2425 Thomas Dr,Brownwood,TX,76801,100000,0,,Thomas Ranch Estates,,605048,2008,458,,,Sold,,,http://www.redfin.com/TX/Brownwood/2425-Thomas-Dr-76801/home/110279210,NTREIS,13968892,N,Y,31.687828,-99.0604037
PAST SALE,June-14-2017,Vacant Land,3415 Fm 1849,Brownwood,TX,76801,179900,0,,NA,,1492366,,1010,,,Sold,,,http://www.redfin.com/TX/Brownwood/3415-FM1849-76801/home/113859857,NTREIS,13586242,N,Y,31.7571457,-99.1091204
PAST SALE,February-4-2019,Vacant Land,1207 N West St,Bangs,TX,76823,63525,0,,H T & B R R CO,,503118,,410,,,Sold,,,http://www.redfin.com/TX/Bangs/1207-N-West-St-76823/home/55067683,NTREIS,13993481,N,Y,31.724709,-99.136528
PAST SALE,April-20-2018,Vacant Land,Deep Water Rd,Brownwood,TX,76801,139000,0,,Deepwater Estates Ph II,,126106,,700,,500,Sold,,,http://www.redfin.com/TX/Brownwood/Deep-Water-Rd-76801/home/74989912,NTREIS,13789933,N,Y,31.84627,-99.001432
PAST SALE,December-31-2018,Vacant Land,0 Deepwater Rd,Brownwood,TX,76801,210000,0,,Deepwater Estates,,201901,,445,,42,Sold,,,http://www.redfin.com/TX/Brownwood/0-Deepwater-Rd-76801/home/143717547,NTREIS,13689445,N,Y,31.841352,-99.002045
PAST SALE,October-18-2018,Vacant Land,975 Deepwater Rd,Brownwood,TX,76801,200000,0,,Deepwater Estates Ph II,,136778,,519,,29,Sold,,,http://www.redfin.com/TX/Brownwood/975-Deep-Water-Rd-76801/home/74989585,NTREIS,13937496,N,Y,31.847282,-99.000774
PAST SALE,April-22-2019,Vacant Land,County Road 589,Brownwood,TX,76801,9995,0,,Oak Ridge Ph III,,21867,,333,,28,Sold,,,http://www.redfin.com/TX/Unknown/County-Road-589-76801/home/148035224,NTREIS,14039047,N,Y,31.807478,-99.061722
PAST SALE,October-4-2019,Vacant Land,459 Feather Bay Dr,Brownwood,TX,76801,30000,0,,Kings Point Cove,,27443,,168,,14,Sold,,,http://www.redfin.com/TX/Brownwood/459-Feather-Bay-Blvd-76801/home/146200073,NTREIS,13844461,N,Y,31.809871,-99.046856
PAST SALE,January-7-2020,Vacant Land,5571 County Road 594,Brownwood,TX,76801,52000,0,,Rolling Hills,,35284,,73,,,Sold,,,http://www.redfin.com/TX/Brownwood/5571-Co-Rd-594-76801/home/74975810,NTREIS,14240161,N,Y,31.83716,-99.080647
PAST SALE,February-26-2020,Vacant Land,FM 3021,Brownwood,TX,76801,55000,0,,Big Rocky Dev 1,,67518,,23,,,Sold,,,http://www.redfin.com/TX/Brownwood/5600-FM-3021-76801/home/74977217,NTREIS,13441725,N,Y,31.8254726,-99.0794935
PAST SALE,March-9-2020,Vacant Land,Feather Bay Blvd Blvd,Brownwood,TX,76801,32000,0,,Feather Bay Sub Ph 1,,25570,,11,,28,Sold,,,http://www.redfin.com/TX/Unknown/Feather-Bay-Blvd-76801/home/74977346,NTREIS,14063746,N,Y,31.813684,-99.042562
PAST SALE,September-1-2017,Vacant Land,Oak Point Dr,May,TX,76857,10000,0,,Oak Point,,129373,,931,,41,Sold,,,http://www.redfin.com/TX/May/Oak-Point-Dr-76857/home/102147838,NTREIS,13193433,N,Y,31.882747,-99.013135
PAST SALE,August-10-2017,Vacant Land,CR 536,Lake Brownwood,TX,76801,100000,0,,Minton,,88427,,953,,,Sold,,,http://www.redfin.com/TX/Unknown/Unknown-76801/home/114024313,NTREIS,13610371,N,Y,31.858815,-99.045225
PAST SALE,January-23-2018,Vacant Land,323 Flagship Dr,May,TX,76857,25000,0,,Harbor Point Sec I,,22521,,787,,20,Sold,,,http://www.redfin.com/TX/Unknown/323-Flagship-Dr-76857/home/147414084,NTREIS,13645626,N,Y,31.912093,-99.017158
PAST SALE,May-3-2019,Vacant Land,4360 Lake Shore Dr,May,TX,76857,35000,0,,"Harbor Point Section 1, Dock #8128",,30056,,322,,15,Sold,,,http://www.redfin.com/TX/May/4360-Lake-Shore-Dr-76857/home/55042615,NTREIS,14027902,N,Y,31.902167,-99.024879
PAST SALE,September-28-2018,Vacant Land,Lake Point Dr,May,TX,76857,5000,0,,Oak Point Ph Two,,22390,,539,,21,Sold,,,http://www.redfin.com/TX/Unknown/Lake-Point-Dr-76857/home/74990490,NTREIS,13193333,N,Y,31.877501,-99.007721
PAST SALE,June-30-2017,Vacant Land,658 Oak Point Dr,May,TX,76857,199700,0,,Oak Point Phase 02,,22956,,994,,21,Sold,,,http://www.redfin.com/TX/May/658-Oak-Point-Dr-76857/home/90357528,NTREIS,13204397,N,Y,31.8742537,-99.0082327
PAST SALE,September-3-2019,Vacant Land,0 County Road 454,Brownwood,TX,76801,110000,0,,Dominion Point Lot 1,,50617,,199,,,Sold,,,http://www.redfin.com/TX/Unknown/County-Road-454-76801/home/148436895,NTREIS,13984334,N,Y,31.874636,-99.036147
PAST SALE,October-7-2019,Vacant Land,CR 420,May,TX,76801,22900,0,,Pecan Bayou Estates,,54624,,165,,,Sold,,,http://www.redfin.com/TX/May/CR-420-76857/home/147427474,NTREIS,14157809,N,Y,31.935573,-99.05057
PAST SALE,October-6-2019,Vacant Land,105 Oak Bluff Ln,May,TX,76857,10000,0,,Oak Point Ph One,,22128,,166,,15,Sold,,,http://www.redfin.com/TX/May/105-Oak-Bluff-Ln-76857/home/102147905,NTREIS,14096606,N,Y,31.892118,-98.98952
PAST SALE,January-3-2020,Vacant Land,0 Deepwater Rd Rd,Brownwood,TX,76801,149000,0,,Deepwater Estates,,178988,,77,,,Sold,,,http://www.redfin.com/TX/Brownwood/Deep-Water-Rd-76801/home/74986722,NTREIS,13993243,N,Y,31.862108,-99.001832
PAST SALE,May-19-2017,Vacant Land,County Road 594,Brownwood,TX,76801,125000,0,,Rolling Hills Estate,,44039,,1036,,,Sold,,,http://www.redfin.com/TX/Unknown/Unknown-76801/home/107604889,NTREIS,13396152,N,Y,31.838109,-99.087881
PAST SALE,May-10-2017,Vacant Land,E Oak St,Early,TX,76802,19000,0,,Cisco Road Add,,179946,1940,1045,,,Sold,,,http://www.redfin.com/TX/Early/E-Oak-St-76802/home/147473861,NTREIS,13512401,N,Y,31.765985,-98.953483
PAST SALE,August-29-2018,Vacant Land,0 Hwy 279,Brownwood,TX,76801,60000,0,,Brownwood Oaks Sub,,306227,,569,,,Sold,,,http://www.redfin.com/TX/Brownwood/Unknown-Unknown/home/145778500,NTREIS,13848699,N,Y,31.745334,-99.00536
PAST SALE,March-28-2017,Vacant Land,Brewster St,Brownwood,TX,76801,540,0,,Industrial First Add,,23000,,1088,,,Sold,,,http://www.redfin.com/TX/Brownwood/Brewster-St-76801/home/74984409,NTREIS,13437784,N,Y,31.723416,-98.993746
PAST SALE,July-26-2018,Vacant Land,6528 County Road 225,Brownwood,TX,76801,28900,0,,Kerr County School Land,,41818,,603,,,Sold,,,http://www.redfin.com/TX/Brownwood/6528-County-Road-225-76801/home/146200284,NTREIS,13770974,N,Y,31.6459349,-98.999538
PAST SALE,October-18-2019,Vacant Land,14845 Clear Creek Dr,Brookesmith,TX,76827,49000,0,,Clear Creek Acres,,327658,,154,,,Sold,,,http://www.redfin.com/TX/Brookesmith/14845-Clear-Creek-Dr-76827/home/161570986,NTREIS,14177158,N,Y,31.52973,-99.083073
PAST SALE,November-20-2019,Vacant Land,5 Oak Hill Cir,Brownwood,TX,76801,33000,0,,Oak Hill,,55757,,121,,,Sold,,,http://www.redfin.com/TX/Brownwood/5-Oak-Hill-Cir-76801/home/104464955,NTREIS,13352266,N,Y,31.646001,-99.0039321
PAST SALE,March-6-2019,Vacant Land,AVOLYN Dr,Brownwood,TX,76801,49000,0,,"Ponderosa Acres,LOT 11-12,",,161608,,380,,,Sold,,,http://www.redfin.com/TX/Unknown/Avolyn-Ave-76801/home/74975639,NTREIS,13913231,N,Y,31.834312,-99.104859
PAST SALE,October-19-2018,Vacant Land,Oak Point Dr,Lake Brownwood,TX,76857,75000,0,,Woodbridge Estates Ph I,,37462,,518,,23,Sold,,,http://www.redfin.com/TX/May/370-Oak-Point-Dr-76857/home/74990116,NTREIS,13799578,N,Y,31.879625,-99.018702
PAST SALE,October-15-2019,Vacant Land,11951 Hwy 84-183 E,Zephyr,TX,76890,48500,0,,UNK,,215404,,157,,,Sold,,,http://www.redfin.com/TX/Zephyr/11951-US-84-76890/home/74991838,NTREIS,14152196,N,Y,31.673335,-98.786475
PAST SALE,August-8-2018,Vacant Land,201 Green River Dr,Brownwood,TX,76801,145000,0,,201 Green River Dr,,1163357,,590,,,Sold,,,http://www.redfin.com/TX/Brownwood/201-Green-River-Dr-76801/home/145926563,NTREIS,13856790,N,Y,31.812982,-99.125164
PAST SALE,September-27-2019,Vacant Land,4051 County Road 147,Brownwood,TX,76801,95000,0,,,,1307671,,175,,,Sold,,,http://www.redfin.com/TX/Brownwood/4051-County-Road-147-76801/home/168681548,NTREIS,14165928,N,Y,31.764506,-99.123839
PAST SALE,September-27-2019,Vacant Land,5241 Highway 279,Brownwood,TX,76801,30000,0,,Country Oaks Estates,,213444,1982,175,,,Sold,,,http://www.redfin.com/TX/Brownwood/5241-TX-279-76801/home/74976034,NTREIS,14191666,N,Y,31.779986,-99.0958409
PAST SALE,June-24-2019,Vacant Land,102 Reynolds Ln,Brownwood,TX,76801,149900,0,,Hill Top Acres Sub,,630705,2018,270,,,Sold,,,http://www.redfin.com/TX/BROWNWOOD/102-REYNOLDS-LN-76801/home/74976095,NTREIS,14035447,N,Y,31.876779,-99.118275
PAST SALE,November-20-2019,Vacant Land,4 Oak Hill Cir,Brownwood,TX,76801,42500,0,,Oak Hill,,54886,,121,,,Sold,,,http://www.redfin.com/TX/Brownwood/4-Oak-Hill-Cir-76801/home/105032576,NTREIS,13350829,N,Y,31.647161,-99.005182
PAST SALE,October-17-2019,Vacant Land,400 Mountain View Loop,Brownwood,TX,76801,180000,0,,Mountain View Estates,,28837,,155,,,Sold,,,http://www.redfin.com/TX/Brownwood/400-Mountain-View-Ln-76801/home/55053412,NTREIS,13822662,N,Y,31.8168924,-99.0711032
PAST SALE,February-6-2018,Vacant Land,17582 Mustang Dr,Brownwood,TX,76801,15681,0,,see private remarks,,130680,,773,,,Sold,,,http://www.redfin.com/TX/Brownwood/17582-Mustang-Dr-76801/home/112711096,NTREIS,13510611,N,Y,31.667819,-98.968787
PAST SALE,November-21-2018,Vacant Land,17585 Mustang Dr,Brownwood,TX,76801,15456,0,,see private remarks,,128807,,485,,,Sold,,,http://www.redfin.com/TX/Brownwood/17585-Mustang-Dr-76801/home/112712634,NTREIS,13954753,N,Y,31.6678,-98.968465
PAST SALE,November-21-2018,Vacant Land,17586 Mustang Dr,Brownwood,TX,76801,13841,0,,see private remarks,,115347,,485,,,Sold,,,http://www.redfin.com/TX/Brownwood/17586-Mustang-Dr-76801/home/112712745,NTREIS,13954764,N,Y,31.66728,-98.968905
PAST SALE,October-29-2018,Vacant Land,"0 Wagon Wheel, Sierra",Brownwood,TX,76801,90000,0,,Woodland Acres Add,,492228,,508,,,Sold,,,http://www.redfin.com/TX/Brownwood/0-Wagon-Wheel-Sierra-76801/home/113658131,NTREIS,13030529,N,Y,31.670062,-98.970912
PAST SALE,November-21-2018,Vacant Land,17584 Mustang Dr,Brownwood,TX,76801,32864,0,,see private remarks,,273905,,485,,,Sold,,,http://www.redfin.com/TX/Brownwood/17584-Mustang-Dr-76801/home/112712444,NTREIS,13954739,N,Y,31.66871,-98.968685
PAST SALE,February-6-2018,Vacant Land,17581 Mustang Dr,Brownwood,TX,76801,31363,0,,see private remarks,,261360,,773,,,Sold,,,http://www.redfin.com/TX/Brownwood/17581-Mustang-Dr-76801/home/112708176,NTREIS,13510607,N,Y,31.672065,-98.967961
PAST SALE,April-20-2018,Vacant Land,301 Comanche Rd,Brownwood,TX,76801,42000,0,,Indian Creek Estates,,397703,,700,,,Sold,,,http://www.redfin.com/TX/Brownwood/301-Comanche-Rd-76801/home/143476463,NTREIS,13729662,N,Y,31.520105,-98.990528
PAST SALE,December-9-2019,Vacant Land,SOUTHGATE,Brownwood,TX,76801,45500,0,,SOUTHGATE RANCHETTES PHASE 1,,152199,,102,,,Sold,,,http://www.redfin.com/TX/Brownwood/Southgate-Dr-76801/home/74989077,NTREIS,14218419,N,Y,31.673943,-98.953352
PAST SALE,January-31-2020,Vacant Land,7825 County Road 292,Early,TX,76802,55000,0,,Jenkins Spgs Sub,,93218,1996,49,,,Sold,,,http://www.redfin.com/TX/Early/7825-County-Road-292-76802/home/170113655,NTREIS,14241882,N,Y,31.74861,-98.8681328
PAST SALE,September-7-2018,Vacant Land,1 Oakdale Ter,Brownwood,TX,76804,64350,0,,Oakdale Terrace,,154202,,560,,,Sold,,,http://www.redfin.com/TX/Brownwood/1-Oakdale-Dr-76801/home/55060269,NTREIS,12092311,N,Y,31.683857,-98.956438
PAST SALE,September-7-2018,Vacant Land,2 Oakdale Ter,Brownwood,TX,76801,61425,0,,Oakdale Terrace,,160083,,560,,,Sold,,,http://www.redfin.com/TX/Brownwood/2-Oakdale-Dr-76801/home/55060270,NTREIS,12092333,N,Y,31.684136,-98.956955
PAST SALE,May-21-2019,Vacant Land,5831 County Road 594,Brownwood,TX,76801,117200,0,,Rolling Hills Estate #2,,74052,1992,304,,,Sold,,,http://www.redfin.com/TX/Brownwood/5831-County-Road-594-76801/home/161475263,NTREIS,14063863,N,Y,31.8379393,-99.0840195
PAST SALE,October-11-2019,Vacant Land,10220 County Road 130,Brownwood,TX,76801,54000,0,,Henry Graham Surv # 651 Abs 34,,359675,,161,,,Sold,,,http://www.redfin.com/TX/Brownwood/10220-County-Road-130-76801/home/146949046,NTREIS,14102189,N,Y,31.8516073,-99.1130846
PAST SALE,January-29-2020,Vacant Land,183 Valley View Dr,Brownwood,TX,76801,11000,0,,Hidden Valley Estates,,45738,,51,,,Sold,,,http://www.redfin.com/TX/Brownwood/183-Valley-View-Dr-76801/home/102153642,NTREIS,13281847,N,Y,31.809046,-99.088892
PAST SALE,January-29-2020,Vacant Land,186 Valley View Dr,Brownwood,TX,76801,11000,0,,Hidden Valley Estates,,43124,,51,,,Sold,,,http://www.redfin.com/TX/Brownwood/186-Valley-View-St-76801/home/102153643,NTREIS,13281849,N,Y,31.80898,-99.088579
PAST SALE,March-10-2020,Vacant Land,Turner Ranch Rd,Brownwood,TX,76801,100750,0,,Turner Ranch Estates,,39422,,10,,,Sold,,,http://www.redfin.com/TX/Unknown/Turner-Ranch-Rd-76801/home/74991188,NTREIS,13874934,N,Y,31.840487,-99.098746
PAST SALE,,Vacant Land,5609 Co Rd 614,Early,TX,76802,30000,,,,,218236,,,,,,,,http://www.redfin.com/TX/Early/5609-Co-Rd-614-76802/home/143476723,,,N,Y,31.764386,-98.887097
PAST SALE,April-9-2018,Vacant Land,9999 17th & Avenue M,Brownwood,TX,76801,142000,0,,D J Jones Surv 60 Abs #549,,836352,,711,,,Sold,,,http://www.redfin.com/TX/Brownwood/9999-76801/home/128021935,NTREIS,13300850,N,Y,31.692111,-98.988446
