SALE TYPE,SOLD DATE,PROPERTY TYPE,ADDRESS,CITY,STATE OR PROVINCE,ZIP OR POSTAL CODE,PRICE,BEDS,BATHS,LOCATION,SQUARE FEET,LOT SIZE,YEAR BUILT,DAYS ON MARKET,$/SQUARE FEET,HOA/MONTH,STATUS,NEXT OPEN HOUSE START TIME,NEXT OPEN HOUSE END TIME,URL (SEE http://www.redfin.com/buy-a-home/comparative-market-analysis FOR INFO ON PRICING),SOURCE,MLS#,FAVORITE,INTERESTED,LATITUDE,LONGITUDE
PAST SALE,April-3-2019,Vacant Land,1161 Dunkerly,Ennis,TX,75119,58000,0,,Maliska Estates,,103324,,652,,,Sold,,,http://www.redfin.com/TX/Ennis/1161-Dunkerley-Rd-75119/home/112390582,NTREIS,13742640,N,Y,32.3525897,-96.6837414
PAST SALE,August-5-2019,Vacant Land,157 W Wood Dell,Glenn Heights,TX,75154,18999,0,,Lindell Estates,,10019,,528,,,Sold,,,http://www.redfin.com/TX/Red-Oak/157-W-Wood-Dell-Dr-75154/home/33542435,NTREIS,14136535,N,Y,32.5427135,-96.8491925
PAST SALE,June-24-2020,Vacant Land,2503 S Hampton Rd,Glenn Heights,TX,75154,100000,0,,Cinnamon Spgs I,,60505,,204,,,Sold,,,http://www.redfin.com/TX/Glenn-Heights/2503-S-Hampton-Rd-75154/home/146980654,NTREIS,14309247,N,Y,32.5401292,-96.8567517
PAST SALE,March-8-2019,Vacant Land,133 Old Bridge Rd,Waxahachie,TX,75165,95000,0,,Estates Of Garden Valley,,14375,,678,,33,Sold,,,http://www.redfin.com/TX/Waxahachie/133-Old-Bridge-Rd-75165/home/110012640,NTREIS,13937128,N,Y,32.4200088,-96.8095529
PAST SALE,November-7-2019,Vacant Land,E Waco St,Ennis,TX,75119,36000,0,,Highland Ennis-Rev,,11500,,434,,,Sold,,,http://www.redfin.com/TX/ENNIS/E-WACO-ST-75119/home/33633613,NTREIS,14224332,N,Y,32.32989,-96.615074
PAST SALE,March-13-2020,Vacant Land,1001 S Mulberry St,Ennis,TX,75119,39500,0,,Mulberry Street Estates,,15246,,307,,,Sold,,,http://www.redfin.com/TX/Ennis/1001-S-Mulberry-St-75119/home/169943864,NTREIS,14293425,N,Y,32.3249586,-96.6126664
PAST SALE,April-17-2020,Vacant Land,601 Crisp,Ennis,TX,75119,47500,0,,Valley View,,34848,,272,,,Sold,,,http://www.redfin.com/TX/Ennis/601-Crisp-Rd-75119/home/38716432,NTREIS,13935201,N,Y,32.3407679,-96.6278434
PAST SALE,June-24-2019,Vacant Land,403 W Lampasas St,Ennis,TX,75119,17000,0,,Ennis-Dvv,,,,570,,,Sold,,,http://www.redfin.com/TX/Ennis/403-W-Lampasas-St-75119/home/33578468,NTREIS,14062054,N,Y,32.3221475,-96.6274034
PAST SALE,March-20-2020,Vacant Land,E Jefferson St,Palmer,TX,75152,35000,0,,Jefferson Estates,,9757,,300,,,Sold,,,http://www.redfin.com/TX/PALMER/E-JEFFERSON-ST-75152/home/33656054,NTREIS,14288684,N,Y,32.431797,-96.66502
PAST SALE,March-13-2019,Vacant Land,Hardwick Ln,Cedar Hill,TX,76065,49900,0,,Lake Ridge Sec 21,,56410,,673,,25,Sold,,,http://www.redfin.com/TX/Midlothian/Hardwick-Ln-76065/home/53010542,NTREIS,13695451,N,Y,32.541036,-97.005578
PAST SALE,May-15-2020,Vacant Land,0 N 5th,Midlothian,TX,76065,14995,0,,OT Midlothian,,6882,,244,,,Sold,,,http://www.redfin.com/TX/Midlothian/203-S-5th-St-76065/home/33586079,NTREIS,14266810,N,Y,32.4809695,-96.9979605
PAST SALE,June-2-2019,Vacant Land,1220 Lynn Way,Waxahachie,TX,75165,65000,0,,Delanie Park,,53492,,592,,,Sold,,,http://www.redfin.com/TX/Waxahachie/1220-Lynn-Way-75165/home/104320318,NTREIS,13345843,N,Y,32.467422,-96.8108276
PAST SALE,March-3-2020,Vacant Land,1224 Lynn Way,Waxahachie,TX,75165,62000,0,,Delanie Park,,48047,,317,,,Sold,,,http://www.redfin.com/TX/Waxahachie/1224-Lynn-Way-75165/home/143486418,NTREIS,13345837,N,Y,32.4679402,-96.8098684
PAST SALE,August-28-2019,Vacant Land,201 Elizabeth St,Palmer,TX,75152,35000,0,,Mc Clain,,10280,,505,,,Sold,,,http://www.redfin.com/TX/Palmer/201-Elizabeth-Dr-75152/home/33589662,NTREIS,14149965,N,Y,32.431373,-96.663427
PAST SALE,November-27-2019,Vacant Land,201 E Arnold St,Ennis,TX,75119,29900,0,,I D Sheppard,,19210,1962,414,,,Sold,,,http://www.redfin.com/TX/Ennis/201-E-Arnold-St-75119/home/168784999,NTREIS,14171652,N,Y,32.3467656,-96.6377927
PAST SALE,July-10-2020,Vacant Land,911 S Mulberry St,Ennis,TX,75119,39500,0,,Mulberry Street Estates,,15246,,188,,,Sold,,,http://www.redfin.com/TX/Ennis/911-S-Mulberry-St-75119/home/169943862,NTREIS,14293407,N,Y,32.3252595,-96.6128679
PAST SALE,August-5-2019,Vacant Land,2900 Terrytown Dr,Ennis,TX,75119,32000,0,,Sleepy Hollow Estates,,15246,,528,,27,Sold,,,http://www.redfin.com/TX/Ennis/2900-Terrytown-Dr-75119/home/56739363,NTREIS,14001839,N,Y,32.3474251,-96.6604962
PAST SALE,May-24-2019,Vacant Land,406 Mcdonnell Ct,Waxahachie,TX,75167,115000,0,,Maypearl Hidden Hills Rev,,83679,,601,,75,Sold,,,http://www.redfin.com/TX/Waxahachie/406-McDonnell-Ct-75167/home/40160413,NTREIS,14042009,N,Y,32.321192,-96.9722886
PAST SALE,March-27-2020,Vacant Land,804 1ST St,Ferris,TX,75125,50000,0,,ORR .482AC,,20996,,293,,,Sold,,,http://www.redfin.com/TX/Ferris/804-W-1st-St-75125/home/33584020,NTREIS,14287162,N,Y,32.537929,-96.6729135
PAST SALE,January-17-2020,Vacant Land,106 N Garrett Ave,Garrett,TX,75119,125000,0,,O T Garrett-Rev,,109205,2001,363,,,Sold,,,http://www.redfin.com/TX/Ennis/106-N-Garrett-Ave-75119/home/33584915,NTREIS,14228566,N,Y,32.364741,-96.652603
PAST SALE,December-4-2020,Vacant Land,704 Crisp Rd,Ennis,TX,75119,32900,0,,Hillcrest Ennis,,10498,,41,,,Sold,,,http://www.redfin.com/TX/Ennis/704-Crisp-Rd-75119/home/33551665,NTREIS,14400959,N,Y,32.3425489,-96.6276086
PAST SALE,January-20-2020,Vacant Land,712 N Church St,Ferris,TX,75125,20000,0,,Weatherford 1st,,10498,,360,,,Sold,,,http://www.redfin.com/TX/Ferris/712-N-Church-St-75125/home/33640685,NTREIS,14115252,N,Y,32.5406974,-96.6667771
PAST SALE,November-21-2019,Vacant Land,3 Hampel Rd,Palmer,TX,75152,45000,0,,Barron Brothers Estates,,46566,,420,,,Sold,,,http://www.redfin.com/TX/Palmer/3-Hampel-Rd-75152/home/76509687,NTREIS,14134069,N,Y,32.4480393,-96.6641623
PAST SALE,May-14-2019,Vacant Land,7041 Daniel Rd,Waxahachie,TX,75167,54900,0,,Hugh Mcdaniel Add,,91476,,611,,,Sold,,,http://www.redfin.com/TX/Waxahachie/7041-Daniel-Rd-75167/home/167528050,NTREIS,14061819,N,Y,32.4686339,-96.9033584
PAST SALE,March-3-2020,Vacant Land,Westmoreland/Holly,Ovilla,TX,75154,90000,0,,J J Clayton,,70132,,317,,,Sold,,,http://www.redfin.com/TX/Ovilla/Unknown-75154/home/173713235,NTREIS,14063096,N,Y,32.536167,-96.873546
PAST SALE,October-6-2020,Vacant Land,3950 Lizzy Ln,Midlothian,TX,76065,99500,0,,Four Trees Add,,84506,,100,,33,Sold,,,http://www.redfin.com/TX/Midlothian/3950-Lizzy-Ln-76065/home/161426728,NTREIS,14233654,N,Y,32.526779,-96.939366
PAST SALE,June-3-2020,Vacant Land,903 Quinlan St,Ennis,TX,75119,15000,0,,Smith-Rev,,3920,,225,,,Sold,,,http://www.redfin.com/TX/Ennis/903-Quinlan-Dr-75119/home/33581752,NTREIS,14157060,N,Y,32.336894,-96.625592
PAST SALE,June-4-2019,Vacant Land,310 S Carlton St,Ennis,TX,75119,18500,0,,J Douthett,,6534,1800,590,,,Sold,,,http://www.redfin.com/TX/Ennis/310-S-Carlton-St-75119/home/38641128,NTREIS,14051585,N,Y,32.321391,-96.634091
PAST SALE,November-1-2019,Vacant Land,135 Old Bridge Rd,Waxahachie,TX,75165,98000,0,,Estates Of Garden Valley,,16074,,440,,33,Sold,,,http://www.redfin.com/TX/Waxahachie/135-Old-Bridge-Rd-75165/home/110012752,NTREIS,13937145,N,Y,32.4199531,-96.8092596
PAST SALE,July-11-2019,Vacant Land,141 Old Bridge Rd,Waxahachie,TX,75165,98000,0,,Estates Of Garden Valley,,16074,,553,,400,Sold,,,http://www.redfin.com/TX/Waxahachie/141-Old-Bridge-Rd-75165/home/110012769,NTREIS,13937247,N,Y,32.4201499,-96.8083522
PAST SALE,November-25-2020,Vacant Land,1011 E Ross St,Waxahachie,TX,75165,49000,0,,Town - Waxahachie,,8886,,50,,,Sold,,,http://www.redfin.com/TX/Waxahachie/1011-E-Ross-St-75165/home/33545847,NTREIS,14464534,N,Y,32.3873095,-96.8307859
PAST SALE,June-26-2020,Vacant Land,1933 Mount Mckinley Pl,Cedar Hill,TX,75104,170000,0,,Lake Ridge Sec 22 Ph A,,43996,,202,,92,Sold,,,http://www.redfin.com/TX/Cedar-Hill/1933-Mt-McKinley-Pl-75104/home/33565582,NTREIS,14301191,N,Y,32.5423077,-97.0019372
PAST SALE,July-17-2020,Vacant Land,2506 Pikes Peak #1900,Cedar Hill,TX,75104,97900,0,,Lake Ridge Sec 22 Ph A,,43691,,181,,102,Sold,,,http://www.redfin.com/TX/Cedar-Hill/2506-Pikes-Peak-75104/unit-1900/home/147043540,NTREIS,13933755,N,Y,32.5377298,-97.0039849
PAST SALE,December-30-2020,Vacant Land,2466 Creekwood Dr,Cedar Hill,TX,75104,74900,0,,Lakeridge,,47088,,15,,31,Sold,,,http://www.redfin.com/TX/Cedar-Hill/2466-Creekwood-Dr-75104/home/33693427,NTREIS,14402299,N,Y,32.54603,-97.00153
PAST SALE,September-25-2020,Vacant Land,Fm 916,Maypearl,TX,76064,99900,0,,O Smith,,77537,,111,,,Sold,,,http://www.redfin.com/TX/Maypearl/Unknown-Unknown/home/173082745,NTREIS,14429511,N,Y,32.30218,-97.048259
PAST SALE,May-3-2019,Vacant Land,1794 Indian Rdg,Oak Leaf,TX,75154,78000,0,,Indian Hills,,88427,,622,,,Sold,,,http://www.redfin.com/TX/Oak-Leaf/1794-Indian-Rdg-75154/home/33549326,NTREIS,14065077,N,Y,32.5036879,-96.8685519
PAST SALE,June-26-2020,Vacant Land,105 Mc Cuen St,Waxahachie,TX,75165,72000,0,,Town - Waxahachie,,13765,,202,,,Sold,,,http://www.redfin.com/TX/Waxahachie/105-McCuen-St-75165/home/173715143,NTREIS,14273684,N,Y,32.384413,-96.841987
PAST SALE,June-26-2020,Vacant Land,804 Dunaway St,Waxahachie,TX,75165,39900,0,,Bullard-Rev.,,6490,,202,,,Sold,,,http://www.redfin.com/TX/Waxahachie/804-Dunaway-St-75165/home/33662365,NTREIS,14353138,N,Y,32.3790628,-96.8561448
PAST SALE,July-9-2019,Vacant Land,001 Davis St,Waxahachie,TX,75165,7000,,,Tom Graham,,9365,,555,,,Sold,,,http://www.redfin.com/TX/Waxahachie/W-University-Ave-75165/home/148164108,HARMLS,14074280,N,Y,32.4044223,-96.853485
PAST SALE,November-12-2020,Vacant Land,565 Hollar Ln,Ennis,TX,75119,50000,0,,T J Chambers,,87120,,63,,,Sold,,,http://www.redfin.com/TX/Ennis/565-Hollar-Ln-75119/home/33670702,NTREIS,14442093,N,Y,32.2907973,-96.4643718
PAST SALE,,Single Family Residential,315 Willow Creek Rd,Palmer,TX,75152,33500,3,2.5,,3635,67518,2016,,9,,,,,http://www.redfin.com/TX/Palmer/315-Willow-Creek-Rd-75152/home/33655778,,,N,Y,32.4180162,-96.6852608
PAST SALE,October-30-2020,Vacant Land,2770 Wilson Rd,Palmer,TX,75152,60000,0,,Chisholm Place #2 Ph 1,,65863,,76,,,Sold,,,http://www.redfin.com/TX/Palmer/2770-Wilson-Rd-75152/home/173325464,NTREIS,14444539,N,Y,32.3994249,-96.6993161
PAST SALE,May-15-2020,Vacant Land,103 Fairview St,Waxahachie,TX,75165,20000,0,,Fairview,,5009,,244,,,Sold,,,http://www.redfin.com/TX/Waxahachie/103-Fairview-Ave-75165/home/33595191,NTREIS,14095737,N,Y,32.381648,-96.839504
PAST SALE,March-21-2019,Vacant Land,706 E Martin Luther King Blvd E,Waxahachie,TX,75165,15000,0,,Fairview,,10498,,665,,,Sold,,,http://www.redfin.com/TX/Waxahachie/706-Martin-Luther-King-Junior-Blvd-75165/home/173842756,NTREIS,12158556,N,Y,32.381963,-96.839817
PAST SALE,July-31-2020,Vacant Land,0 Fm 664,Midlothian,TX,76065,115000,0,,J S Berry,,43560,,167,,,Sold,,,http://www.redfin.com/TX/Midlothian/Farm-to-Market-Road-664-76065/home/171105918,NTREIS,14276533,N,Y,32.515354,-96.891298
PAST SALE,April-26-2019,Vacant Land,102 Meadowbrook Dr,Oak Leaf,TX,75154,50000,0,,Southaven Estate I - Rev,,25003,,629,,,Sold,,,http://www.redfin.com/TX/Red-Oak/102-Meadowbrook-Dr-75154/home/33588262,NTREIS,13558861,N,Y,32.516795,-96.859082
PAST SALE,July-9-2019,Vacant Land,002 Davis St,Waxahachie,TX,75165,7000,,,Tom Graham,,9365,,555,,,Sold,,,http://www.redfin.com/TX/Waxahachie/Unknown-75165/home/147792790,HARMLS,89925224,N,Y,32.37857,-96.828257
PAST SALE,June-24-2020,Vacant Land,8011 E Jefferson St,Waxahachie,TX,75165,40000,0,,Fairview,,5009,,204,,,Sold,,,http://www.redfin.com/TX/Waxahachie/8011-E-Jefferson-St-75165/home/172072143,NTREIS,14362415,N,Y,32.384124,-96.84786
PAST SALE,September-9-2020,Vacant Land,2505 Hampton Rd,Glenn Heights,TX,75154,100000,0,,Cinnamon Spgs I,,64033,,127,,,Sold,,,http://www.redfin.com/TX/Glenn-Heights/2505-Hampton-Rd-75154/home/33640313,NTREIS,14277496,N,Y,32.539005,-96.857559
PAST SALE,December-4-2020,Vacant Land,2501 Hampton Rd,Glenn Heights,TX,75154,99000,0,,Cinnamon Spgs I,,63162,,41,,,Sold,,,http://www.redfin.com/TX/Glenn-Heights/2501-Hampton-Rd-75154/home/33640311,NTREIS,14469541,N,Y,32.539854,-96.857504
PAST SALE,November-13-2020,Vacant Land,2213 Shane Dr,Midlothian,TX,76065,118450,0,,Estates Of Somercrest,,20909,,62,,45,Sold,,,http://www.redfin.com/TX/Midlothian/2213-Shane-Dr-76065/home/110015672,NTREIS,14371322,N,Y,32.455152,-96.9665833
PAST SALE,June-1-2020,Vacant Land,909 S Mulberry St,Ennis,TX,75119,39500,0,,Mulberry Street Estates,,15246,,227,,,Sold,,,http://www.redfin.com/TX/Ennis/909-S-Mulberry-St-75119/home/169943861,NTREIS,14293393,N,Y,32.3254095,-96.612971
PAST SALE,March-13-2019,Vacant Land,Oak St,Ferris,TX,75125,18000,0,,Weatherford 3rd,,6229,,673,,,Sold,,,http://www.redfin.com/TX/FERRIS/OAK-ST-75125/home/33640674,NTREIS,14013981,N,Y,32.54198,-96.671088
PAST SALE,November-7-2019,Vacant Land,121 Mcknight Rd,Ferris,TX,75125,60000,0,,Country View Estates,,43560,,434,,,Sold,,,http://www.redfin.com/TX/Ferris/121-McKnight-Rd-75125/home/173514956,NTREIS,14166737,N,Y,32.521917,-96.614345
PAST SALE,March-6-2019,Vacant Land,137 W Wood Dell,Glenn Heights,TX,75154,26500,0,,Lindell Estates,,10019,,680,,,Sold,,,http://www.redfin.com/TX/Red-Oak/137-W-Wood-Dell-75154/home/33542433,NTREIS,14007802,N,Y,32.5427142,-96.8487222
PAST SALE,September-19-2019,Vacant Land,1211 Lynn Way,Waxahachie,TX,75165,62000,0,,Delanie Park,,43560,,483,,,Sold,,,http://www.redfin.com/TX/Waxahachie/1211-Lynn-Way-75165/home/104320313,NTREIS,14179131,N,Y,32.4683311,-96.8132258
PAST SALE,December-3-2019,Vacant Land,233 Sidewinder Loop,Red Oak,TX,75154,105000,0,,Shiloh Downs Ph IV,,120008,,408,,83,Sold,,,http://www.redfin.com/TX/Red-Oak/233-Sidewinder-Loop-75154/home/110012875,NTREIS,14176810,N,Y,32.5120049,-96.740446
PAST SALE,June-15-2020,Vacant Land,0 Enchanted Ct,Red Oak,TX,75154,170000,0,,Pleasant Ridge,,121184,,213,,,Sold,,,http://www.redfin.com/TX/Red-Oak/Enchanted-Ct-75154/home/35577178,NTREIS,14173090,N,Y,32.5342,-96.812059
PAST SALE,July-23-2019,Vacant Land,1218 Lynn Way,Waxahachie,TX,75165,65000,0,,Delanie Park,,55191,,541,,,Sold,,,http://www.redfin.com/TX/Waxahachie/1218-Lynn-Way-75165/home/143486420,NTREIS,13345845,N,Y,32.4673896,-96.8111899
PAST SALE,September-18-2020,Vacant Land,900 Cope St,Mansfield,TX,76065,40000,0,,O T Britton-Rev,,10019,,118,,,Sold,,,http://www.redfin.com/TX/Midlothian/900-Cope-St-76065/home/33643725,NTREIS,14420511,N,Y,32.548656,-97.068472
PAST SALE,July-15-2020,Vacant Land,2631 Gannon Way #1997,Cedar Hill,TX,75104,77900,0,,Lake Ridge Sec 23 Ph A,,43691,,183,,31,Sold,,,http://www.redfin.com/TX/Cedar-Hill/2631-Gannon-Way-75104/unit-1997/home/172064698,NTREIS,14364966,N,Y,32.5390968,-97.0093427
PAST SALE,January-17-2020,Vacant Land,130 Lonesome Valley Rd,Waxahachie,TX,75167,85000,0,,J Estates,,45215,2001,363,,,Sold,,,http://www.redfin.com/TX/Waxahachie/130-Lonesome-Valley-Rd-75167/home/160464204,NTREIS,14022829,N,Y,32.361637,-96.950173
PAST SALE,September-14-2020,Vacant Land,870 Dove Meadow Trl,Waxahachie,TX,75167,65000,0,,Dove meadow Estates,,52011,,122,,17,Sold,,,http://www.redfin.com/TX/Waxahachie/870-Dove-Meadow-TRL-75167/home/170651582,NTREIS,14287925,N,Y,32.341605,-96.904064
PAST SALE,July-20-2020,Vacant Land,107 E Overhill Dr,Glenn Heights,TX,75154,30000,0,,Lindell Estates,,10019,,178,,,Sold,,,http://www.redfin.com/TX/Glenn-Heights/107-E-Overhill-Dr-75154/home/33542654,NTREIS,14371778,N,Y,32.544578,-96.843954
PAST SALE,March-11-2020,Vacant Land,630 Hampel Rd,Palmer,TX,75152,60000,0,,43834,,45390,,309,,,Sold,,,http://www.redfin.com/TX/Palmer/630-Hampel-Rd-75152/home/170593445,NTREIS,14284539,N,Y,32.4583865,-96.6519191
PAST SALE,October-24-2019,Vacant Land,2 Hampel Rd,Palmer,TX,75152,45000,0,,Barron Brothers Estates,,46217,,448,,,Sold,,,http://www.redfin.com/TX/Unknown/2-Hampel-Rd-75152/home/173715327,NTREIS,14134047,N,Y,32.458963,-96.651554
PAST SALE,September-21-2020,Vacant Land,1 Bud Run Rd,Waxahachie,TX,75165,69900,0,,H Harris,,43604,,115,,,Sold,,,http://www.redfin.com/TX/Waxahachie/1-Bud-Run-75165/home/171507013,NTREIS,14332707,N,Y,32.260351,-96.8439
PAST SALE,July-31-2020,Vacant Land,Gravel St,Waxahachie,TX,75165,35000,0,,Thompson,,15246,,167,,,Sold,,,http://www.redfin.com/TX/WAXAHACHIE/GRAVEL-ST-75165/home/33660685,NTREIS,14382117,N,Y,32.377672,-96.838828
PAST SALE,July-15-2020,Vacant Land,101 Fairview St,Waxahachie,TX,75165,20000,0,,Fairview,,5009,,183,,,Sold,,,http://www.redfin.com/TX/Waxahachie/101-Fairview-Ave-75165/home/33664344,NTREIS,14095759,N,Y,32.381754,-96.839775
PAST SALE,August-3-2020,Vacant Land,2203 Alyssum,Cedar Hill,TX,75104,79900,0,,Lake Ridge Sec 23 Ph A,,54668,,164,,29,Sold,,,http://www.redfin.com/TX/Cedar-Hill/2203-Alyssum-Dr-75104/home/33565575,NTREIS,14333780,N,Y,32.544223,-97.013174
PAST SALE,August-19-2020,Vacant Land,2259 Alyssum,Cedar Hill,TX,75104,55900,0,,Lake Ridge Sec 23 Ph A,,43604,,148,,42,Sold,,,http://www.redfin.com/TX/Cedar-Hill/2259-Alyssum-Dr-75104/home/160396901,NTREIS,14365044,N,Y,32.539017,-97.013265
PAST SALE,March-13-2020,Vacant Land,1230 Archdale,Glenn Heights,TX,75154,14000,0,,Lindell Estates,,10324,,307,,,Sold,,,http://www.redfin.com/TX/Red-Oak/1230-Archdale-Ln-75154/home/33542500,NTREIS,14293534,N,Y,32.5433133,-96.8501593
PAST SALE,May-26-2020,Vacant Land,3000 Courtney Ln,Glenn Heights,TX,75154,36000,0,,Sunrise Meadow Ph IV,,12197,,233,,,Sold,,,http://www.redfin.com/TX/Glenn-Heights/Courtney-Ln-75154/home/58480445,NTREIS,14331409,N,Y,32.529703,-96.849076
PAST SALE,August-31-2020,Vacant Land,332 Green Mound Dr,Glenn Heights,TX,75154,11500,0,,Lindell Estates,,9932,,136,,,Sold,,,http://www.redfin.com/TX/Glenn-Heights/332-Green-Mound-Dr-75154/home/33542591,NTREIS,14305123,N,Y,32.546051,-96.848941
PAST SALE,September-18-2020,Vacant Land,1370 Shallowbend Dr,Midlothian,TX,76065,89000,0,,Ashemore Ph Ii-Rev,,28880,,118,,17,Sold,,,http://www.redfin.com/TX/Midlothian/1370-Shallowbend-Dr-76065/home/33543120,NTREIS,14425506,N,Y,32.498198,-96.903628
PAST SALE,August-10-2020,Vacant Land,110 Lone Elm,Waxahachie,TX,75167,84900,0,,Savannah Oaks,,43560,,157,,,Sold,,,http://www.redfin.com/TX/Waxahachie/110-Lone-Elm-Rd-75167/home/171040660,NTREIS,14299920,N,Y,32.410069,-96.925541
PAST SALE,September-30-2020,Vacant Land,Oak St,Ferris,TX,75125,15000,0,,Weatherford 3rd,,5009,,106,,,Sold,,,http://www.redfin.com/TX/FERRIS/OAK-ST-75125/home/33640672,NTREIS,14426804,N,Y,32.541439,-96.671595
PAST SALE,October-9-2019,Vacant Land,0 Hunter Pass Ln,Waxahachie,TX,75165,95000,0,,Crystal Hills,,66255,,463,,,Sold,,,http://www.redfin.com/TX/WAXAHACHIE/HUNTER-PASS-75165/home/45105265,NTREIS,14190357,N,Y,32.332724,-96.813702
PAST SALE,April-24-2020,Vacant Land,913 S Mulberry St,Ennis,TX,75119,39500,0,,Mulberry Street Estates,,15246,,265,,,Sold,,,http://www.redfin.com/TX/Ennis/913-S-Mulberry-St-75119/home/169943863,NTREIS,14293417,N,Y,32.3251084,-96.6127679
PAST SALE,September-20-2019,Vacant Land,1602 Jupiter Ln,Ennis,TX,75119,35000,0,,Promontory Point North,,11021,,482,,,Sold,,,http://www.redfin.com/TX/Ennis/1602-Jupiter-Ln-75119/home/33555664,NTREIS,14178712,N,Y,32.3371,-96.611452
PAST SALE,May-14-2020,Vacant Land,209 Lake Shore Ln,Glenn Heights,TX,75154,45000,0,,Lindell Estates,,10062,,245,,,Sold,,,http://www.redfin.com/TX/Red-Oak/209-Lakeshore-Ln-75154/home/110011450,NTREIS,14330996,N,Y,32.5434189,-96.8466801
PAST SALE,May-28-2019,Vacant Land,214 Katy Lake Dr,Waxahachie,TX,75165,125000,0,,Katy Lake On The Green Ph 1,,22216,,597,,41,Sold,,,http://www.redfin.com/TX/Waxahachie/214-Katy-Lake-Dr-75165/home/33559635,NTREIS,13994029,N,Y,32.403888,-96.862447
PAST SALE,August-4-2020,Vacant Land,131 Du Bose Way,Waxahachie,TX,75167,104500,0,,Maypearl Hidden Hills,,57281,,163,,75,Sold,,,http://www.redfin.com/TX/Waxahachie/131-DuBose-Way-75167/home/170490325,NTREIS,14273836,N,Y,32.3243484,-96.9644629
PAST SALE,April-29-2020,Vacant Land,1303 Faulkner Ave,Ennis,TX,75119,35000,0,,Valley View Addn,,12371,,260,,,Sold,,,http://www.redfin.com/TX/Ennis/1303-Faulkner-Ave-75119/home/33638704,NTREIS,14312003,N,Y,32.3411816,-96.6263907
PAST SALE,December-27-2019,Vacant Land,101 Pierce Rd,Red Oak,TX,75154,69999,0,,R Bell,,7841,1965,384,,,Sold,,,http://www.redfin.com/TX/Red-Oak/101-Pierce-Rd-75154/home/35583975,NTREIS,14093678,N,Y,32.5166965,-96.7669099
PAST SALE,September-20-2019,Vacant Land,1601 Jupiter Ln,Ennis,TX,75119,35000,0,,Promontory Point North,,14113,,482,,,Sold,,,http://www.redfin.com/TX/Ennis/1601-Jupiter-Ln-75119/home/33555668,NTREIS,14178684,N,Y,32.336647,-96.6115
PAST SALE,June-4-2019,Vacant Land,801 Daffan Ave,Ennis,TX,75119,15000,0,,Ennis-Div,,7231,,590,,,Sold,,,http://www.redfin.com/TX/Ennis/801-Daffan-Ave-75119/home/33577006,NTREIS,14027460,N,Y,32.335726,-96.626513
PAST SALE,June-26-2019,Vacant Land,4 Old Brandon Rd,Milford,TX,76670,10100,0,,Gold Country,,10629,,568,,,Sold,,,http://www.redfin.com/TX/Milford/4-Old-Brandon-Rd-76670/home/166589815,NTREIS,14092853,N,Y,32.113184,-96.954248
PAST SALE,June-26-2019,Vacant Land,5 Old Brandon Rd,Milford,TX,76670,10100,0,,Gold Country,,10629,,568,,,Sold,,,http://www.redfin.com/TX/Milford/5-Old-Brandon-Rd-76670/home/166727286,NTREIS,14092872,N,Y,32.113311,-96.953962
PAST SALE,September-18-2019,Vacant Land,8 Old Brandon Rd,Milford,TX,76670,18500,0,,Gold Country,,10629,,484,,,Sold,,,http://www.redfin.com/TX/Milford/8-Old-Brandon-Rd-76670/home/166727327,NTREIS,14092913,N,Y,32.113184,-96.954248
PAST SALE,July-19-2019,Vacant Land,1104 Estate Dr,Ennis,TX,75119,50000,0,,Sleepy Hollow Estates,,34412,,545,,38,Sold,,,http://www.redfin.com/TX/Ennis/1104-Estate-Dr-75119/home/56711480,NTREIS,14001797,N,Y,32.3503071,-96.6581505
PAST SALE,May-30-2019,Vacant Land,2390 Old Telico Rd,Ennis,TX,75119,29000,0,,A Garza,,80586,,595,,,Sold,,,http://www.redfin.com/TX/Ennis/2390-Old-Telico-Rd-75119/home/110161289,NTREIS,13999911,N,Y,32.3692683,-96.5261655
PAST SALE,June-5-2020,Vacant Land,301 Perry Ave,Waxahachie,TX,75165,22000,0,,Highland Park,,5445,,223,,,Sold,,,http://www.redfin.com/TX/Waxahachie/301-Perry-Ave-75165/home/33596154,NTREIS,14319578,N,Y,32.3812799,-96.834269
PAST SALE,July-17-2020,Vacant Land,Gardner St,Waxahachie,TX,75165,50000,0,,Town,,25439,,181,,,Sold,,,http://www.redfin.com/TX/WAXAHACHIE/GARDNER-ST-75165/home/33660839,NTREIS,14369186,N,Y,32.384296,-96.838523
PAST SALE,January-22-2020,Vacant Land,5511 Ram Trl,Midlothian,TX,76065,85000,0,,Buffalo Hills #1,,51314,,358,,,Sold,,,http://www.redfin.com/TX/Midlothian/5511-Ram-Trl-76065/home/33608971,NTREIS,14242188,N,Y,32.488736,-97.070007
PAST SALE,September-25-2020,Vacant Land,109 E Dickson,Milford,TX,76670,25000,0,,L Dunnegan,,33541,,111,,,Sold,,,http://www.redfin.com/TX/Milford/109-Dickson-St-76670/home/33652451,NTREIS,14414970,N,Y,32.121961,-96.9466417
PAST SALE,April-29-2019,Vacant Land,0 Shady Brook Ln,Ferris,TX,75125,50000,0,,Rock Creek Estates #2,,43560,,626,,,Sold,,,http://www.redfin.com/TX/Ferris/Shady-Brook-Ln-75125/home/173866851,NTREIS,14063140,N,Y,32.520056,-96.729668
PAST SALE,June-12-2020,Vacant Land,Ruby Ave,Midlothian,TX,76065,18000,0,,Skyline Acres - Rev,,10062,,216,,,Sold,,,http://www.redfin.com/TX/MIDLOTHIAN/RUBY-AVE-76065/home/33649718,NTREIS,14322151,N,Y,32.537359,-96.978397
PAST SALE,June-25-2020,Vacant Land,2307 Timber Creek Ct #1438,Cedar Hill,TX,75104,57900,0,,Lake Ridge Sec 17-Ph 1,,29490,,203,,115,Sold,,,http://www.redfin.com/TX/Cedar-Hill/2307-Timber-Creek-Ct-75104/unit-1438/home/145121995,NTREIS,13793902,N,Y,32.543873,-96.9966356
PAST SALE,July-10-2020,Vacant Land,608 E Southbrook Dr,Red Oak,TX,75154,20000,0,,Lindell Estates,,10019,,188,,,Sold,,,http://www.redfin.com/TX/Glenn-Heights/608-E-Southbrook-Dr-75154/home/172394838,NTREIS,14365881,N,Y,32.543644,-96.84465
PAST SALE,July-8-2020,Vacant Land,143 Old Bridge Rd,Waxahachie,TX,75165,100000,0,,Estates Of Garden Valley,,26484,,190,,33,Sold,,,http://www.redfin.com/TX/Waxahachie/143-Old-Bridge-Rd-75165/home/110012741,NTREIS,13943190,N,Y,32.4203749,-96.8081214
PAST SALE,January-31-2020,Vacant Land,0 Lakeway Dr,Waxahachie,TX,75165,72500,0,,Twin Lakes Estate Add Rev,,86684,,349,,,Sold,,,http://www.redfin.com/TX/WAXAHACHIE/LAKEWAY-DR-75165/home/33629042,NTREIS,14193105,N,Y,32.461927,-96.778323
PAST SALE,July-20-2020,Vacant Land,129 Old Bridge Rd,Waxahachie,TX,75165,98000,0,,Estates Of Garden Valley,,15507,,178,,400,Sold,,,http://www.redfin.com/TX/Waxahachie/129-Old-Bridge-Rd-75165/home/110012581,NTREIS,13937041,N,Y,32.4201107,-96.8101226
PAST SALE,June-13-2019,Vacant Land,1104 E Decatur St,Ennis,TX,75119,15000,0,,Smith-Rev,,5750,,581,,,Sold,,,http://www.redfin.com/TX/Ennis/1104-E-Decatur-St-75119/home/163820505,NTREIS,14075854,N,Y,32.3363081,-96.6193557
PAST SALE,April-22-2019,Vacant Land,828 Oak St,Ferris,TX,75125,30000,0,,Weatherford 3rd,,12502,,633,,,Sold,,,http://www.redfin.com/TX/Ferris/828-Oak-St-75125/home/33584079,NTREIS,14013943,N,Y,32.541752,-96.671078
PAST SALE,March-20-2019,Vacant Land,148 Sullivan Way,Waxahachie,TX,75167,109900,0,,Maypearl Hidden Hills Rev,,114084,,666,,75,Sold,,,http://www.redfin.com/TX/Waxahachie/148-Sullivan-Way-75167/home/173718234,NTREIS,13981558,N,Y,32.319507,-96.9727057
PAST SALE,January-21-2019,Vacant Land,408 S Fm 308,Milford,TX,76670,85000,0,,L Dunnegan,,87120,1900,724,,,Sold,,,http://www.redfin.com/TX/Milford/408-FM-308-76670/home/35554813,NTREIS,13891668,N,Y,32.116058,-96.94807
PAST SALE,May-17-2019,Vacant Land,2487 Creekwood Dr,Cedar Hill,TX,75104,67900,0,,Lake Ridge Sec 17 Ph 02,,68041,,608,,31,Sold,,,http://www.redfin.com/TX/Cedar-Hill/2487-Creekwood-Dr-75104/home/32262179,NTREIS,14004416,N,Y,32.5483131,-97.0032135
PAST SALE,April-4-2019,Vacant Land,2024 Blue Ridge Dr #1864,Cedar Hill,TX,75104,79900,0,,Lake Ridge Sec 22 Ph A,,43647,,651,,94,Sold,,,http://www.redfin.com/TX/Cedar-Hill/2024-Blue-Ridge-Dr-75104/unit-1864/home/108446713,NTREIS,14003791,N,Y,32.5404831,-96.9970811
PAST SALE,October-11-2019,Vacant Land,108 Water Garden Dr,Waxahachie,TX,75165,70000,0,,Estates Of Garden Valley,,16771,,461,,33,Sold,,,http://www.redfin.com/TX/Waxahachie/108-Water-Garden-Dr-75165/home/110012637,NTREIS,14141174,N,Y,32.4197117,-96.8159015
PAST SALE,November-27-2019,Vacant Land,226 Henrietta St,Waxahachie,TX,75165,35000,0,,Thompson,,8799,,414,,,Sold,,,http://www.redfin.com/TX/Waxahachie/226-Henrietta-St-75165/home/173706456,NTREIS,14159094,N,Y,32.377971,-96.837388
PAST SALE,July-15-2020,Vacant Land,708 Dr Martin Luther King Jr Blvd,Waxahachie,TX,75165,40000,0,,Fairview,,10019,,183,,,Sold,,,http://www.redfin.com/TX/WAXAHACHIE/708-DR-MARTIN-LUTHER-KING-JR-BLVD-75165/home/33542355,NTREIS,14370798,N,Y,32.382007,-96.839485
PAST SALE,August-9-2019,Vacant Land,2507 S Hampton Rd,Glenn Heights,TX,75154,80000,0,,Cinnamon Springs I Rev 1.539 acres,,67039,,524,,,Sold,,,http://www.redfin.com/TX/Glenn-Heights/2507-S-Hampton-Rd-75154/home/145469151,NTREIS,14040507,N,Y,32.5401292,-96.8567517
PAST SALE,August-2-2019,Vacant Land,130 W Overhill Dr,Glenn Heights,TX,75154,19000,0,,Lindell Estates,,10019,,531,,,Sold,,,http://www.redfin.com/TX/Red-Oak/130-Overhill-Dr-75154/home/33542482,NTREIS,14141326,N,Y,32.5451222,-96.8482545
PAST SALE,May-14-2020,Vacant Land,201 Lake Shore Ln,Glenn Heights,TX,75154,45000,0,,Lindell Estates,,10237,,245,,,Sold,,,http://www.redfin.com/TX/Red-Oak/201-Lakeshore-Ln-75154/home/110011460,NTREIS,14331010,N,Y,32.5432439,-96.846747
PAST SALE,February-15-2019,Vacant Land,2433 Meridian Pl,Midlothian,TX,76065,96000,0,,Parks Of Somercrest,,16553,,699,,163,Sold,,,http://www.redfin.com/TX/Midlothian/2433-Meridian-Pl-76065/home/167525079,NTREIS,13769680,N,Y,32.456221,-96.965854
PAST SALE,April-1-2019,Vacant Land,1219 Lynn Way,Waxahachie,TX,75165,62000,0,,Delanie Park,,43560,,654,,,Sold,,,http://www.redfin.com/TX/Waxahachie/1219-Lynn-Way-75165/home/104320315,NTREIS,14019596,N,Y,32.4686175,-96.8112472
PAST SALE,June-16-2020,Vacant Land,7231 Dillon Cir,Waxahachie,TX,75167,95000,0,,Long Branch Estates,,110599,,212,,,Sold,,,http://www.redfin.com/TX/Waxahachie/7231-Dillon-CIR-75167/home/170222810,NTREIS,14254679,N,Y,32.38106,-96.853804
PAST SALE,February-14-2020,Vacant Land,2 John Davis Rd,Italy,TX,76651,65000,0,,E D Harrsion,,106722,,335,,,Sold,,,http://www.redfin.com/TX/Italy/2-John-Davis-Rd-76651/home/167186510,NTREIS,14133858,N,Y,32.1773662,-96.9066004
PAST SALE,April-26-2019,Vacant Land,640 Ewing Rd,Ferris,TX,75125,54900,0,,Jw Baker,,56323,,629,,,Sold,,,http://www.redfin.com/TX/Ferris/640-Ewing-Rd-75125/home/160535652,NTREIS,14028803,N,Y,32.5074602,-96.6834549
PAST SALE,February-11-2019,Vacant Land,1 Palmyra Rd,Ferris,TX,75125,49900,0,,Jw Baker,,45869,,703,,,Sold,,,http://www.redfin.com/TX/Ferris/1-Palmyra-Rd-75125/home/173704193,NTREIS,13966255,N,Y,32.496093,-96.70503
PAST SALE,September-13-2019,Vacant Land,2619 Wells Ct,Cedar Hill,TX,75104,75000,0,,Lake Ridge Sec 21,,43691,,489,,31,Sold,,,http://www.redfin.com/TX/Cedar-Hill/2619-Wells-Ct-75104/home/30732074,NTREIS,14094616,N,Y,32.5482862,-97.008494
PAST SALE,October-9-2020,Vacant Land,2506 Hardwick Ln,Cedar Hill,TX,75104,99900,0,,Lake Ridge,,44039,,97,,31,Sold,,,http://www.redfin.com/TX/Cedar-Hill/2506-Hardwick-Ln-75104/home/147415912,NTREIS,14074632,N,Y,32.5413957,-97.0054473
PAST SALE,August-30-2019,Vacant Land,2480 Creekwood Dr,Cedar Hill,TX,75104,72500,0,,Lake Ridge Sec 17,,57281,,503,,31,Sold,,,http://www.redfin.com/TX/Cedar-Hill/2480-Creekwood-Dr-75104/home/33693418,NTREIS,14100673,N,Y,32.5473639,-97.003279
PAST SALE,November-21-2019,Vacant Land,2710 Mandy Ct,Cedar Hill,TX,75104,80000,0,,Lake Ridge Sec 21,,45215,,420,,375,Sold,,,http://www.redfin.com/TX/CEDAR-HILL/2710-MANDY-CT-75104/home/33543044,NTREIS,14196931,N,Y,32.54671,-97.012573
PAST SALE,July-10-2020,Vacant Land,137 Old Bridge Rd,Waxahachie,TX,75165,98000,0,,Estates Of Garden Valley,,16074,,188,,33,Sold,,,http://www.redfin.com/TX/Waxahachie/137-Old-Bridge-Rd-75165/home/110012539,NTREIS,13937171,N,Y,32.4199586,-96.808942
PAST SALE,July-2-2019,Vacant Land,5150 Antelope Trl,Midlothian,TX,76065,69000,0,,Buffalo Hills #1,,32801,,562,,,Sold,,,http://www.redfin.com/TX/Midlothian/5150-Antelope-Trl-76065/home/33608981,NTREIS,14117266,N,Y,32.4877178,-97.0669238
PAST SALE,June-19-2020,Vacant Land,907 S Mulberry St,Ennis,TX,75119,42000,0,,Mulberry Street Estates,,15246,,209,,,Sold,,,http://www.redfin.com/TX/Ennis/907-S-Mulberry-St-75119/home/169943860,NTREIS,14347632,N,Y,32.3255598,-96.6130726
PAST SALE,June-5-2020,Vacant Land,1413 Ethan Cir,Midlothian,TX,76065,89000,0,,Wickliffe Manor,,6795,,223,,285,Sold,,,http://www.redfin.com/TX/Midlothian/1413-Ethan-CIR-76065/home/171582713,NTREIS,14309759,N,Y,32.462001,-96.977162
PAST SALE,October-9-2019,Vacant Land,120 Homestead Ln,Waxahachie,TX,75165,60000,0,,Homestead Ests,,43560,,463,,,Sold,,,http://www.redfin.com/TX/Waxahachie/156-Homestead-Ln-75165/home/167527218,NTREIS,14156947,N,Y,32.3493531,-96.8395836
PAST SALE,September-6-2019,Vacant Land,2403 Hardwick,Cedar Hill,TX,75104,100000,0,,Lake Ridge Sec 22 Ph A,,108639,,496,,83,Sold,,,http://www.redfin.com/TX/Cedar-Hill/2403-Hardwick-Ln-75104/home/173714076,NTREIS,14161222,N,Y,32.5412324,-96.9969736
PAST SALE,July-16-2020,Vacant Land,1822 Sunset Xing,Cedar Hill,TX,75104,60000,0,,Lake Ridge Sec 17,,23914,,182,,115,Sold,,,http://www.redfin.com/TX/Cedar-Hill/1822-Sunset-Xing-75104/home/33693201,NTREIS,14358233,N,Y,32.54401,-96.998335
PAST SALE,August-21-2020,Vacant Land,2314 Autumn Run Ct #1441,Cedar Hill,TX,75104,49900,0,,Lake Ridge Sec 17,,27617,,146,,115,Sold,,,http://www.redfin.com/TX/Cedar-Hill/2314-Autumn-Run-Ct-75104/unit-1441/home/145121229,NTREIS,13793752,N,Y,32.54468,-96.9962524
PAST SALE,April-15-2020,Vacant Land,1921 Mount Mckinley Pl #1833,Cedar Hill,TX,75104,174900,0,,Lake Ridge Sec 22 Ph A,,44257,,274,,100,Sold,,,http://www.redfin.com/TX/Cedar-Hill/1921-Mount-McKinley-Pl-75104/unit-1833/home/160689668,NTREIS,14215440,N,Y,32.5417976,-97.0015584
PAST SALE,September-30-2019,Vacant Land,2407 Hardwick Dr #1857,Cedar Hill,TX,75104,89000,0,,Lake Ridge Sec 22 Ph A,,73007,,472,,83,Sold,,,http://www.redfin.com/TX/Cedar-Hill/2407-Hardwick-Ln-75104/unit-1857/home/113509557,NTREIS,13906060,N,Y,32.5414795,-97.0053131
PAST SALE,August-31-2020,Vacant Land,2005 Kati Jane Ln,Midlothian,TX,76065,86500,0,,Wickliffe Manor,,6360,,136,,285,Sold,,,http://www.redfin.com/TX/Midlothian/2005-Kati-Jane-LN-76065/home/171437236,NTREIS,14241821,N,Y,32.462101,-96.977049
PAST SALE,August-31-2020,Vacant Land,2010 Destiny Dr,Midlothian,TX,76065,86500,0,,Wickliffe Manor,,6316,,136,,285,Sold,,,http://www.redfin.com/TX/Midlothian/2010-Destiny-DR-76065/home/171437624,NTREIS,14241612,N,Y,32.461906,-96.977509
PAST SALE,August-5-2020,Vacant Land,3620 Waters Edge Dr,Midlothian,TX,76065,229000,0,,Waters Edge,,51357,,162,,229,Sold,,,http://www.redfin.com/TX/Midlothian/3620-Waters-Edge-Dr-76065/home/102324401,NTREIS,14288805,N,Y,32.5037237,-96.9478101
PAST SALE,September-18-2020,Vacant Land,441 McDonnell Ct,Waxahachie,TX,75167,104500,0,,Maypearl Hidden Hills,,127761,,118,,75,Sold,,,http://www.redfin.com/TX/Waxahachie/441-McDonnell-Ct-75167/home/170490326,NTREIS,14273867,N,Y,32.3212667,-96.9704468
PAST SALE,January-10-2020,Vacant Land,2219 Somerfield Dr,Midlothian,TX,76065,128750,0,,Estates Of Somercrest,,22695,,370,,45,Sold,,,http://www.redfin.com/TX/Midlothian/2219-Somerfield-Dr-76065/home/110015630,NTREIS,14176135,N,Y,32.457562,-96.9680192
PAST SALE,August-9-2019,Vacant Land,2542 Town View Dr #1758,Cedar Hill,TX,75104,75000,0,,Lake Ridge Sec 21 Ph B,,43690,,524,,21,Sold,,,http://www.redfin.com/TX/Cedar-Hill/2542-Town-View-Dr-75104/unit-1758/home/147931331,NTREIS,11416889,N,Y,32.5402596,-97.0029953
PAST SALE,May-21-2020,Vacant Land,0 Hidden Meadow Cir,Midlothian,TX,76065,79000,0,,Hidden Meadow,,30492,,238,,,Sold,,,http://www.redfin.com/TX/MIDLOTHIAN/HIDDEN-MEADOW-CIR-76065/home/110012226,NTREIS,14268588,N,Y,32.483831,-96.934378
PAST SALE,November-13-2020,Vacant Land,111 Evening Fire Dr,Waxahachie,TX,75165,79900,0,,Pioneer Point,,52272,,62,,33,Sold,,,http://www.redfin.com/TX/Waxahachie/111-Evening-Fire-Dr-75167/home/173026421,NTREIS,14425845,N,Y,32.363132,-96.917921
PAST SALE,July-30-2020,Vacant Land,220 Du Bose Way,Waxahachie,TX,75167,102400,0,,Maypearl Hidden Hills,,70001,,168,,75,Sold,,,http://www.redfin.com/TX/Waxahachie/220-DuBose-Way-75167/home/170490324,NTREIS,14273815,N,Y,32.3235054,-96.9688698
PAST SALE,September-20-2019,Vacant Land,0 Oak Hill Ct,Waxahachie,TX,75167,85000,0,,Emerald Forest#1 1.7916,,77972,,482,,,Sold,,,http://www.redfin.com/TX/WAXAHACHIE/OAK-HILL-CT-75167/home/33612912,NTREIS,14147148,N,Y,32.358142,-96.956211
PAST SALE,October-2-2020,Vacant Land,W Highland Rd,Midlothian,TX,76065,120000,0,,West Highland Addition,,67387,,104,,,Sold,,,http://www.redfin.com/TX/MIDLOTHIAN/W-HIGHLAND-RD-76065/home/33609132,NTREIS,14324083,N,Y,32.502229,-96.91152
PAST SALE,April-18-2019,Vacant Land,677 Johnson Ln,Ovilla,TX,75154,85000,0,,W C Billingsley,,65427,,637,,,Sold,,,http://www.redfin.com/TX/Red-Oak/677-Johnson-Ln-75154/home/33653928,NTREIS,14049852,N,Y,32.5469768,-96.9108421
PAST SALE,March-26-2019,Vacant Land,Fm 878,Palmer,TX,75152,45000,0,,J Plunkett,,47480,,660,,,Sold,,,http://www.redfin.com/TX/Palmer/Fm-878-Unknown/home/173707344,NTREIS,14035511,N,Y,32.42554,-96.690305
PAST SALE,July-9-2019,Vacant Land,0 Graham/Davis St,Waxahachie,TX,75165,7000,0,,2 Tom Graham,,9365,,555,,,Sold,,,http://www.redfin.com/TX/WAXAHACHIE/GRAHAM-ST-75165/home/33666498,NTREIS,13940122,N,Y,32.378853,-96.830256
PAST SALE,November-21-2019,Vacant Land,109 Elmwood Dr,Ovilla,TX,75154,65000,0,,Willow Creek,,50965,2019,420,,,Sold,,,http://www.redfin.com/TX/Red-Oak/109-Elmwood-Dr-75154/home/33656078,NTREIS,14212614,N,Y,32.5363366,-96.8964443
PAST SALE,January-28-2019,Vacant Land,590 Curry Rd,Waxahachie,TX,75167,75000,0,,Sanjeev Farms Ph I,,113256,,717,,,Sold,,,http://www.redfin.com/TX/Waxahachie/590-Curry-Rd-75167/home/173716426,NTREIS,13953896,N,Y,32.3135825,-96.8983818
PAST SALE,May-14-2020,Vacant Land,151 Lake Shore Ln,Glenn Heights,TX,75154,45000,0,,Lindell Estates,,9757,,245,,,Sold,,,http://www.redfin.com/TX/Glenn-Heights/151-Lakeshore-Ln-75154/home/33542385,NTREIS,14331021,N,Y,32.543059,-96.846798
PAST SALE,June-17-2020,Vacant Land,315 Carson St,Red Oak,TX,75154,26000,0,,20 5 BECKLEY PIKE EST 0.301 ACRES,,13112,,211,,,Sold,,,http://www.redfin.com/TX/Red-Oak/315-Carson-St-75154/home/33657632,NTREIS,14314997,N,Y,32.5263753,-96.824699
PAST SALE,April-15-2019,Vacant Land,560 Ewing Rd,Ferris,TX,75125,62500,0,,Jw Baker,,106548,,640,,,Sold,,,http://www.redfin.com/TX/Ferris/560-Ewing-Rd-75125/home/160767940,NTREIS,14052258,N,Y,32.5068012,-96.6848677
PAST SALE,January-20-2020,Vacant Land,700 N Church St,Ferris,TX,75125,20000,0,,Weatherford 1st,,7013,,360,,,Sold,,,http://www.redfin.com/TX/Ferris/700-N-Church-St-75125/home/33640686,NTREIS,14115073,N,Y,32.540318,-96.666772
PAST SALE,June-18-2020,Vacant Land,705 E Latimer St,Ennis,TX,75119,40000,0,,Smith-Rev,,12981,,210,,,Sold,,,http://www.redfin.com/TX/Ennis/705-E-Latimer-St-75119/home/33581740,NTREIS,14352492,N,Y,32.33741,-96.6244085
PAST SALE,October-6-2020,Vacant Land,0 Moore,Ennis,TX,75119,19000,0,,HILLCREST ENNIS,,13068,,100,,,Sold,,,http://www.redfin.com/TX/ENNIS/MOORE-ST-75119/home/33637115,NTREIS,14405230,N,Y,32.342269,-96.628578
PAST SALE,September-19-2019,Vacant Land,1 Hampel Rd,Palmer,TX,75152,45000,0,,Barron Brothers Estates,,45390,,483,,,Sold,,,http://www.redfin.com/TX/Unknown/1-Hampel-Rd-75152/home/167181246,NTREIS,14133538,N,Y,32.456272,-96.654179
PAST SALE,July-31-2020,Vacant Land,S Elm St,Ennis,TX,75119,40000,0,,Jackson,,12589,,167,,,Sold,,,http://www.redfin.com/TX/ENNIS/S-ELM-ST-75119/home/38703905,NTREIS,14332750,N,Y,32.324282,-96.614073
PAST SALE,January-31-2019,Vacant Land,609 Bunk House Dr,Venus,TX,76084,95000,0,,Ranchview Estates Ph 3,,121097,,714,,,Sold,,,http://www.redfin.com/TX/Venus/609-Bunk-House-Dr-76084/home/33621736,NTREIS,13906918,N,Y,32.369864,-97.05243
PAST SALE,September-1-2020,Vacant Land,3811 Waters Edge Dr,Midlothian,TX,76065,249900,0,,Waters Edge,,126324,,135,,2750,Sold,,,http://www.redfin.com/TX/Midlothian/3811-Waters-Edge-Dr-76065/home/62529785,NTREIS,14392437,N,Y,32.502357,-96.946267
PAST SALE,February-26-2020,Vacant Land,2214 Becky Ln #1530,Cedar Hill,TX,75104,89500,0,,Lake Ridge Sec 21,,43778,,323,,31,Sold,,,http://www.redfin.com/TX/Cedar-Hill/2214-Becky-Ln-75104/unit-1530/home/167186084,NTREIS,14135050,N,Y,32.5430999,-97.0096788
PAST SALE,October-25-2019,Vacant Land,0 Elizabeth Ave,Midlothian,TX,76065,10500,0,,Skyline Acres - Rev,,10062,,447,,,Sold,,,http://www.redfin.com/TX/MIDLOTHIAN/ELIZABETH-AVE-76065/home/33649115,NTREIS,14186947,N,Y,32.534341,-96.983464
PAST SALE,October-7-2020,Vacant Land,2302 Big Horn Dr #1807,Cedar Hill,TX,75104,65000,0,,Lake Ridge Sec 22 Ph A,,43778,,99,,102,Sold,,,http://www.redfin.com/TX/Cedar-Hill/2302-Big-Horn-Dr-75104/unit-1807/home/171034193,NTREIS,14299138,N,Y,32.5382965,-96.9978698
PAST SALE,June-25-2019,Vacant Land,2707 Mandy Ct #1669,Cedar Hill,TX,75104,89900,0,,Lake Ridge Sec 21,,49441,,569,,31,Sold,,,http://www.redfin.com/TX/Cedar-Hill/2707-Mandy-Ct-75104/unit-1669/home/164671860,NTREIS,14080818,N,Y,32.5475655,-97.0120665
PAST SALE,February-7-2020,Vacant Land,2438 Hardwick Ln #1824,Cedar Hill,TX,75104,99900,0,,Lake Ridge Sec 22 Ph A,,44039,,342,,102,Sold,,,http://www.redfin.com/TX/Cedar-Hill/2438-Hardwick-Ln-75104/unit-1824/home/167211442,NTREIS,14136545,N,Y,32.5414533,-97.0053551
PAST SALE,May-22-2020,Vacant Land,2214 Alyssum,Cedar Hill,TX,75104,72900,0,,Lake Ridge Sec 23 Ph A,,43691,,237,,31,Sold,,,http://www.redfin.com/TX/Cedar-Hill/2214-Alyssum-Dr-75104/home/33558393,NTREIS,14276688,N,Y,32.543088,-97.011908
PAST SALE,May-7-2019,Vacant Land,2503 Pikes Peak #1916,Cedar Hill,TX,75104,84900,0,,Lake Ridge Sec 22 Ph A,,43647,,618,,94,Sold,,,http://www.redfin.com/TX/Cedar-Hill/2503-Pikes-Peak-75104/unit-1916/home/104468261,NTREIS,13355541,N,Y,32.5377311,-97.003983
PAST SALE,May-1-2020,Vacant Land,2016 Blue Ridge Dr,Cedar Hill,TX,75104,79900,0,,Lake Ridge Sec 22 Ph A,,53753,,258,,94,Sold,,,http://www.redfin.com/TX/Cedar-Hill/2016-Blue-Ridge-Dr-75104/home/33558479,NTREIS,13822952,N,Y,32.539397,-96.997131
PAST SALE,March-13-2019,Vacant Land,2310 Autumn Run Ct #1442,Cedar Hill,TX,75104,39900,0,,Lake Ridge Sec 17,,33715,,673,,115,Sold,,,http://www.redfin.com/TX/Cedar-Hill/2310-Autumn-Run-Ct-75104/unit-1442/home/145121249,NTREIS,13793766,N,Y,32.5446498,-96.996101
PAST SALE,July-30-2019,Vacant Land,2522 Hardwick Ln,Cedar Hill,TX,76065,65000,0,,Lake Ridge Sec 21,,53274,,534,,31,Sold,,,http://www.redfin.com/TX/MIDLOTHIAN/2522-HARDWICK-LN-76065/home/33543106,NTREIS,13951435,N,Y,32.540851,-97.005081
PAST SALE,March-30-2020,Vacant Land,2415 Summer Brook Ct,Cedar Hill,TX,75104,61900,0,,Lake Ridge Sec 17,,34107,,290,,115,Sold,,,http://www.redfin.com/TX/Cedar-Hill/2415-Summer-Brook-Ct-75104/home/169298586,NTREIS,14200463,N,Y,32.5466558,-96.9970627
PAST SALE,June-19-2020,Vacant Land,2502 Pikes Peak #1899,Cedar Hill,TX,75104,92500,0,,Lake Ridge Sec 22 Ph A,,43560,,209,,102,Sold,,,http://www.redfin.com/TX/Cedar-Hill/2502-Pikes-Peak-75104/unit-1899/home/109319896,NTREIS,14329297,N,Y,32.5377316,-97.0039824
PAST SALE,March-10-2020,Vacant Land,2219 Alyssum,Cedar Hill,TX,75104,86000,0,,Lake Ridge,,43604,,310,,31,Sold,,,http://www.redfin.com/TX/Cedar-Hill/2219-Alyssum-Dr-75104/home/33559603,NTREIS,14222121,N,Y,32.542748,-97.013199
PAST SALE,August-21-2020,Vacant Land,2607 Mason Ln,Cedar Hill,TX,75104,79000,0,,Lake Ridge Sec 21 Ph B,,56628,,146,,31,Sold,,,http://www.redfin.com/TX/Cedar-Hill/2607-Mason-Ln-75104/home/33551607,NTREIS,13981672,N,Y,32.5412271,-97.0076168
PAST SALE,March-9-2020,Vacant Land,2607 Gannon Way,Cedar Hill,TX,75104,65000,0,,Lake Ridge Sec 21 Ph B,,43691,,311,,31,Sold,,,http://www.redfin.com/TX/Cedar-Hill/2607-Gannon-Way-75104/home/33551595,NTREIS,14198499,N,Y,32.539177,-97.007656
PAST SALE,July-9-2020,Vacant Land,1421 Creekwood Dr,Cedar Hill,TX,75104,79500,0,,Lake Ridge,,30492,,189,,100,Sold,,,http://www.redfin.com/TX/Cedar-Hill/1421-Creekwood-Dr-75104/home/35567196,NTREIS,14347739,N,Y,32.5431003,-96.9973796
PAST SALE,July-12-2019,Vacant Land,2611 Wells Ct,Cedar Hill,TX,75104,72500,0,,Lake Ridge -Section 21,,43655,,552,,375,Sold,,,http://www.redfin.com/TX/Cedar-Hill/2611-Wells-Ct-75104/home/33543073,NTREIS,14119207,N,Y,32.54817,-97.0076924
PAST SALE,March-26-2019,Vacant Land,2533 Town View Dr,Cedar Hill,TX,75104,42000,0,,Lake Ridge Sec 22 Ph A,,46086,,660,,31,Sold,,,http://www.redfin.com/TX/Cedar-Hill/2533-Town-View-Dr-75104/home/45105129,NTREIS,13826925,N,Y,32.540033,-97.005355
PAST SALE,November-13-2020,Vacant Land,2259 Alyssum #1956,Cedar Hill,TX,75104,65000,0,,Lake Ridge Sec 23 Ph A,,43604,,62,,31,Sold,,,http://www.redfin.com/TX/Cedar-Hill/2259-Alyssum-75104/unit-1956/home/173540214,NTREIS,14461282,N,Y,32.538977,-97.013158
PAST SALE,March-7-2019,Vacant Land,2211 Alyssum Dr,Cedar Hill,TX,75104,69000,0,,Lakeridge Sec 23 PH A,,43604,,679,,23,Sold,,,http://www.redfin.com/TX/Cedar-Hill/2211-Alyssum-Dr-75104/home/33559821,NTREIS,13832255,N,Y,32.5434787,-97.0129344
PAST SALE,June-17-2020,Vacant Land,1814 Sunset Xing,Cedar Hill,TX,75104,50000,0,,Lake Ridge Sec 17,,27878,,211,,75,Sold,,,http://www.redfin.com/TX/Cedar-Hill/1814-Sunset-Xing-75104/home/33693220,NTREIS,14364125,N,Y,32.544618,-96.998012
PAST SALE,April-20-2020,Vacant Land,3350 Mountain View Dr,Venus,TX,76084,60000,0,,Mountain View- Rev,,87120,1997,269,,,Sold,,,http://www.redfin.com/TX/Venus/3350-Mountain-View-Dr-76084/home/33619175,NTREIS,14315331,N,Y,32.3920578,-97.0351987
PAST SALE,April-21-2020,Vacant Land,800 Marion Rd,Venus,TX,76084,75000,0,,A T Miller,,87120,,268,,,Sold,,,http://www.redfin.com/TX/Venus/800-Marion-Rd-76084/home/170081909,NTREIS,14242060,N,Y,32.3706837,-97.0382381
PAST SALE,May-13-2020,Vacant Land,2541 Town View Dr,Cedar Hill,TX,75104,59000,0,,Lake Ridge Sec 21 Ph B,,43691,,246,,31,Sold,,,http://www.redfin.com/TX/Cedar-Hill/2541-Town-View-Dr-75104/home/33551587,NTREIS,14296754,N,Y,32.540184,-97.006547
PAST SALE,August-30-2019,Vacant Land,2159 Rohne Dr #1612,Cedar Hill,TX,75104,89000,0,,Lake Ridge Sec 21,,49876,,503,,31,Sold,,,http://www.redfin.com/TX/Cedar-Hill/2159-Rohne-Dr-75104/unit-1612/home/167115338,NTREIS,14120312,N,Y,32.5431761,-97.0042984
PAST SALE,June-5-2019,Vacant Land,2472 Creekwood Dr,Cedar Hill,TX,75104,54900,0,,Lake Ridge Sec 17,,52795,,589,,31,Sold,,,http://www.redfin.com/TX/Cedar-Hill/2472-Creekwood-Dr-75104/home/33693423,NTREIS,14077990,N,Y,32.54649,-97.002233
PAST SALE,April-30-2020,Vacant Land,2306 TIMBER CREEK Ct,Cedar Hill,TX,75104,45000,0,,Lake Ridge Sec 17,,52054,,259,,96,Sold,,,http://www.redfin.com/TX/Cedar-Hill/2306-Timber-Creek-Ct-75104/home/33693445,NTREIS,13773644,N,Y,32.542928,-96.996283
PAST SALE,February-14-2020,Vacant Land,2 Derrs Chapel Rd,Italy,TX,76651,62000,0,,E D Harrsion,,98446,,335,,,Sold,,,http://www.redfin.com/TX/Italy/2-Derrs-Chapel-Rd-76651/home/167182124,NTREIS,14130322,N,Y,32.1848345,-96.8916784
PAST SALE,November-3-2020,Vacant Land,321 Mangrum Dr,Waxahachie,TX,75167,93500,0,,Maypearl Hidden Hills,,77972,,72,,75,Sold,,,http://www.redfin.com/TX/Waxahachie/321-Mangrum-DR-75167/home/170490321,NTREIS,14273409,N,Y,32.321468,-96.970025
PAST SALE,May-15-2019,Vacant Land,661 Davenport Dr,Midlothian,TX,76065,69500,0,,Bob White Estates,,98010,,610,,32,Sold,,,http://www.redfin.com/TX/Midlothian/661-Davenport-Dr-76065/home/143919082,NTREIS,13790684,N,Y,32.4748457,-96.8926545
PAST SALE,February-19-2020,Vacant Land,1404 Dr Martin Luther King Blvd,Waxahachie,TX,75165,42000,0,,,,43124,,330,,,Sold,,,http://www.redfin.com/TX/Waxahachie/1404-Dr-Martin-Luther-King-BLVD-75165/home/173714341,NTREIS,14077164,N,Y,32.378301,-96.830896
PAST SALE,January-15-2020,Vacant Land,606 Pecan Tree Rd,Waxahachie,TX,75167,60000,0,,Yale Farm,,43560,,365,,,Sold,,,http://www.redfin.com/TX/Waxahachie/606-Pecan-Tree-Rd-75165/home/169291056,NTREIS,14198708,N,Y,32.2891793,-96.8419579
PAST SALE,January-16-2020,Vacant Land,8 Hunter Pass,Waxahachie,TX,75165,90000,0,,Crystal Cove Ph 2,,68433,,364,,25,Sold,,,http://www.redfin.com/TX/Waxahachie/8-Hunter-Pass-75165/home/56524623,NTREIS,14230136,N,Y,32.3325253,-96.8200967
PAST SALE,March-6-2020,Vacant Land,111 E Woodell Dr E,Glenn Heights,TX,75154,20000,0,,Lindell Estates,,10019,,314,,,Sold,,,http://www.redfin.com/TX/Glenn-Heights/111-E-Woodell-Dr-75154/home/33542629,NTREIS,14234746,N,Y,32.542717,-96.844646
PAST SALE,February-14-2020,Vacant Land,620 Lin Dell Dr,Glenn Heights,TX,75154,20000,0,,Lindell Estates,,10019,,335,,,Sold,,,http://www.redfin.com/TX/Glenn-Heights/620-Lindell-St-75154/home/33542409,NTREIS,14244685,N,Y,32.541789,-96.843407
PAST SALE,August-6-2020,Vacant Land,N Mockingbird Rd,Midlothian,TX,76065,140000,0,,West Highland Addition,,106678,,161,,,Sold,,,http://www.redfin.com/TX/MIDLOTHIAN/N-MOCKINGBIRD-LN-76065/home/33612845,NTREIS,14324101,N,Y,32.515872,-96.926001
PAST SALE,October-7-2019,Vacant Land,0 W Lake Bardwell Dr,Ennis,TX,75119,68000,0,,Hi View Ranch Estates,,123057,,465,,,Sold,,,http://www.redfin.com/TX/ENNIS/W-LAKE-BARDWELL-DR-75119/home/167529041,NTREIS,14129761,N,Y,32.27454,-96.672347
PAST SALE,January-20-2020,Vacant Land,704 N Church St,Ferris,TX,75125,20000,0,,Weatherford 1st,,7013,,360,,,Sold,,,http://www.redfin.com/TX/Ferris/704-N-Church-St-75125/home/33584088,NTREIS,14115242,N,Y,32.540518,-96.6667779
PAST SALE,October-9-2019,Vacant Land,144 Homestead Ln,Waxahachie,TX,75165,60000,0,,Homestead Ests,,43560,,463,,,Sold,,,http://www.redfin.com/TX/Waxahachie/156-Homestead-Ln-75165/home/167527227,NTREIS,14156951,N,Y,32.3493531,-96.8395836
PAST SALE,August-23-2019,Vacant Land,2423 Somerfield Dr,Midlothian,TX,76065,129900,0,,Estates Of Somercrest,,24524,,510,,46,Sold,,,http://www.redfin.com/TX/Midlothian/2423-Somerfield-Dr-76065/home/110015553,NTREIS,13784271,N,Y,32.454961,-96.9680899
PAST SALE,August-23-2019,Vacant Land,2419 Somerfield Dr,Midlothian,TX,76065,129900,0,,Estates Of Somercrest,,22695,,510,,46,Sold,,,http://www.redfin.com/TX/Midlothian/2419-Somerfield-Dr-76065/home/110014957,NTREIS,13784288,N,Y,32.4553464,-96.9680561
PAST SALE,March-8-2019,Vacant Land,2513 Town View Dr #1792,Cedar Hill,TX,75104,150000,0,,Lake Ridge Sec 22 Ph A,,44649,,678,,102,Sold,,,http://www.redfin.com/TX/Cedar-Hill/2513-Town-View-Dr-75104/unit-1792/home/38544588,NTREIS,13806334,N,Y,32.540893,-97.002836
PAST SALE,August-15-2019,Vacant Land,2123 Rohne Dr,Cedar Hill,TX,75104,85999,0,,Lake Ridge Sec 21,,43604,,518,,29,Sold,,,http://www.redfin.com/TX/Cedar-Hill/2123-Rohne-Dr-75104/home/33543003,NTREIS,14125864,N,Y,32.545831,-97.004437
PAST SALE,April-19-2019,Vacant Land,2607 Wells Ct #1549,Cedar Hill,TX,75104,79900,0,,Lake Ridge Sec 21,,59459,,636,,31,Sold,,,http://www.redfin.com/TX/Cedar-Hill/2607-Wells-Ct-75104/unit-1549/home/153212633,NTREIS,14009351,N,Y,32.5483924,-97.0096769
PAST SALE,September-24-2020,Vacant Land,1031 Gibson Rd,Palmer,TX,75152,79000,0,,G R Wheelock,,43560,,112,,,Sold,,,http://www.redfin.com/TX/Palmer/1031-Gibson-Rd-75152/home/33683244,NTREIS,14432432,N,Y,32.4422193,-96.7704051
PAST SALE,December-3-2020,Vacant Land,Americana Dr,Palmer,TX,75152,95000,0,,Americana Est,,119311,,42,,,Sold,,,http://www.redfin.com/TX/Unknown/Americana-Dr-75152/home/33608158,NTREIS,14474254,N,Y,32.465059,-96.752505
PAST SALE,December-3-2019,Vacant Land,1225 Lynn Way,Waxahachie,TX,75165,77900,0,,Delanie Park,,95222,,408,,,Sold,,,http://www.redfin.com/TX/Waxahachie/1225-Lynn-Way-75165/home/143486417,NTREIS,14220672,N,Y,32.4685623,-96.8097395
PAST SALE,November-13-2020,Vacant Land,1895 Ryder Lee,Waxahachie,TX,75165,69500,0,,Murray Estates,,43560,,62,,50,Sold,,,http://www.redfin.com/TX/Waxahachie/1895-Ryder-Lee-Ln-75165/home/173621469,NTREIS,14352113,N,Y,32.429303,-96.858302
PAST SALE,August-10-2020,Vacant Land,120 Lone Elm,Waxahachie,TX,75167,84900,0,,Savannah Oaks,,43560,,157,,,Sold,,,http://www.redfin.com/TX/Waxahachie/120-Lone-Elm-Rd-75167/home/171040763,NTREIS,14299941,N,Y,32.409806,-96.925624
PAST SALE,July-17-2020,Vacant Land,325 Choice Dr,Palmer,TX,75152,52000,0,,Americas Choice Village Ph 3,,26397,,181,,,Sold,,,http://www.redfin.com/TX/Palmer/325-Choice-Dr-75152/home/110016835,NTREIS,14258971,N,Y,32.4684626,-96.7451263
PAST SALE,July-1-2019,Vacant Land,2 Old Brandon Rd,Milford,TX,76670,10100,0,,Gold Country,,10629,,563,,,Sold,,,http://www.redfin.com/TX/Milford/2-Old-Brandon-Rd-76670/home/166752103,NTREIS,14094423,N,Y,32.113184,-96.954248
PAST SALE,December-14-2020,Vacant Land,Lakeview Dr,Ennis,TX,75119,120000,0,,A Gonzaba,,87120,,31,,,Sold,,,http://www.redfin.com/TX/ENNIS/LAKEVIEW-DR-75119/home/52418237,NTREIS,14465480,N,Y,32.265317,-96.63172
PAST SALE,December-23-2020,Vacant Land,Old Maloney Road LOT 3,Avalon,TX,76623,40000,0,,MEADOW CREEK FARM,,49223,,22,,,Sold,,,http://www.redfin.com/TX/Avalon/Old-Maloney-Road-LOT-3-76623/home/173913952,NTREIS,14482447,N,Y,32.254803,-96.790707
PAST SALE,January-7-2021,Vacant Land,Carter Rd,Italy,TX,76651,60000,0,,Carter Estates,,76230,,7,,50,Sold,,,http://www.redfin.com/TX/ITALY/CARTER-RD-76651/home/161435276,NTREIS,14458253,N,Y,32.198222,-96.88376
PAST SALE,July-19-2019,Vacant Land,1 Ewing Rd,Ferris,TX,75125,59900,0,,Jw Baker,,65340,,545,,,Sold,,,http://www.redfin.com/TX/Unknown/1-Ewing-Rd-75125/home/173715507,NTREIS,13962982,N,Y,32.505813,-96.685891
PAST SALE,September-27-2019,Vacant Land,4 Hampel Rd,Palmer,TX,75152,45000,0,,Barron Brothers Estates,,45825,,475,,,Sold,,,http://www.redfin.com/TX/Unknown/4-Hampel-Rd-75152/home/173867067,NTREIS,14134713,N,Y,32.458648,-96.65112
PAST SALE,June-30-2020,Vacant Land,2310 Big Horn Dr #1809,Cedar Hill,TX,75104,99500,0,,Lake Ridge Sec 22 Ph A,,47916,,198,,94,Sold,,,http://www.redfin.com/TX/Cedar-Hill/2310-Big-Horn-Dr-75104/unit-1809/home/113379463,NTREIS,14344170,N,Y,32.5384311,-96.9976135
PAST SALE,November-23-2020,Vacant Land,2004 Blue Ridge Dr,Cedar Hill,TX,75104,159900,0,,Lake Ridge Sec 22 Ph A,,92304,,52,,115,Sold,,,http://www.redfin.com/TX/Cedar-Hill/2004-Blue-Ridge-Dr-75104/home/33559927,NTREIS,14354020,N,Y,32.540189,-96.99586
PAST SALE,December-7-2020,Vacant Land,2303 Timber Creek Ct,Cedar Hill,TX,75104,63000,0,,Lake Ridge,,70698,,38,,75,Sold,,,http://www.redfin.com/TX/Cedar-Hill/2303-Timber-Creek-Ct-75104/home/33693447,NTREIS,14328610,N,Y,32.543734,-96.995692
PAST SALE,December-14-2020,Vacant Land,211 Dubose Way,Waxahachie,TX,75167,127000,0,,Maypearl Hidden Hills,,68389,,31,,75,Sold,,,http://www.redfin.com/TX/Waxahachie/211-DuBose-Way-75167/home/170011228,NTREIS,14469536,N,Y,32.3240174,-96.9681619
PAST SALE,April-1-2019,Vacant Land,1600 Golden Spike Dr,Ennis,TX,75119,29000,0,,Promontory Point North,,15028,,654,,,Sold,,,http://www.redfin.com/TX/Ennis/1600-Golden-Spike-Dr-75119/home/35588566,NTREIS,14000369,N,Y,32.335329,-96.610377
PAST SALE,November-1-2019,Vacant Land,Stacks Rd,Ennis,TX,75119,49900,0,,R. De La Pena Survey,,87164,,440,,,Sold,,,http://www.redfin.com/TX/ENNIS/STACKS-RD-75119/home/33672332,NTREIS,14044017,N,Y,32.468937,-96.562865
PAST SALE,June-7-2019,Vacant Land,711 W Madison St,Ennis,TX,75119,39000,0,,Lake Highland #5- Rev,,14985,1800,587,,,Sold,,,http://www.redfin.com/TX/Ennis/711-W-Madison-St-75119/home/33580635,NTREIS,14027440,N,Y,32.316275,-96.628805
PAST SALE,October-2-2019,Vacant Land,163 cochise,Ferris,TX,75125,59000,0,,Timari Estates Ph I,,43560,,470,,,Sold,,,http://www.redfin.com/TX/Ferris/163-Cochise-Dr-75125/home/173514185,NTREIS,14135438,N,Y,32.512645,-96.622148
PAST SALE,May-26-2020,Vacant Land,3018 Courtney Ln,Glenn Heights,TX,75154,36000,0,,Sunrise Meadow Ph IV,,12632,,233,,,Sold,,,http://www.redfin.com/TX/Glenn-Heights/Courtney-Ln-75154/home/33562664,NTREIS,14331464,N,Y,32.527014,-96.849255
PAST SALE,December-18-2020,Vacant Land,4761 Golden Bell Ln,Midlothian,TX,76065,124000,0,,Azalea Hollow,,36155,,27,,70,Sold,,,http://www.redfin.com/TX/Midlothian/4761-Golden-Bell-LN-76065/home/173760044,NTREIS,14474436,N,Y,32.480261,-96.986987
PAST SALE,December-28-2020,Vacant Land,12337 Fm 157,Maypearl,TX,76064,100000,0,,Green Manor-Rev,,77101,,17,,,Sold,,,http://www.redfin.com/TX/Maypearl/12337-Fm-157-76064/home/174028717,NTREIS,14476853,N,Y,32.324628,-97.022386
PAST SALE,February-8-2019,Vacant Land,Ring Rd,Waxahachie,TX,75165,117500,0,,The Ranch at Hidden Creek,,76012,,706,,,Sold,,,http://www.redfin.com/TX/WAXAHACHIE/S-RING-RD-75165/home/33950964,NTREIS,13940194,N,Y,32.459323,-96.80245
PAST SALE,December-19-2019,Vacant Land,122 Water Garden Dr,Waxahachie,TX,75165,80000,0,,Estates Of Garden Valley,,19123,,392,,33,Sold,,,http://www.redfin.com/TX/Waxahachie/122-Water-Garden-Dr-75165/home/110012489,NTREIS,14141221,N,Y,32.419772,-96.8138732
PAST SALE,October-9-2019,Vacant Land,125 Homestead Ln,Waxahachie,TX,75165,60000,0,,Homestead Ests,,48700,,463,,,Sold,,,http://www.redfin.com/TX/Waxahachie/156-Homestead-Ln-75165/home/167527255,NTREIS,14156938,N,Y,32.3493531,-96.8395836
PAST SALE,August-23-2019,Vacant Land,213 Lakewood Dr,Waxahachie,TX,75165,49000,0,,Lake Shore Acrs-Rev,,13983,,510,,,Sold,,,http://www.redfin.com/TX/Waxahachie/213-Lakewood-Dr-75165/home/33664473,NTREIS,14093897,N,Y,32.338379,-96.841513
PAST SALE,November-15-2019,Vacant Land,Nellie St,Ennis,TX,75119,26500,0,,West Lake Ennis-Rev,,12502,,426,,,Sold,,,http://www.redfin.com/TX/ENNIS/NELLIE-ST-75119/home/33548592,NTREIS,14210879,N,Y,32.330208,-96.637921
PAST SALE,August-30-2019,Vacant Land,1801 Jupiter Ln,Ennis,TX,75119,35000,0,,Promontory Point North,,11892,,503,,,Sold,,,http://www.redfin.com/TX/Ennis/1801-Jupiter-Ln-75119/home/39988195,NTREIS,14158170,N,Y,32.3361632,-96.6100377
PAST SALE,September-13-2019,Vacant Land,0 Highview Rd,Ennis,TX,75119,68000,0,,High View Ranch Estates,,87120,,489,,,Sold,,,http://www.redfin.com/TX/Ennis/262-High-View-Marina-Rd-75119/home/33547718,NTREIS,14129771,N,Y,32.2715168,-96.6680263
PAST SALE,December-27-2019,Vacant Land,836 E Pecan Tree Rd,Waxahachie,TX,75165,69999,0,,,,98010,,384,,,Sold,,,http://www.redfin.com/TX/Waxahachie/836-E-Pecan-Tree-Rd-75165/home/38787531,NTREIS,14032361,N,Y,32.292701,-96.838637
PAST SALE,November-5-2019,Vacant Land,1220 Archdale Ln,Glenn Heights,TX,75154,16900,0,,Lindell Estates,,10324,,436,,,Sold,,,http://www.redfin.com/TX/Glenn-Heights/1220-Archdale-Ln-75154/home/169240850,NTREIS,14195530,N,Y,32.5433128,-96.8498583
PAST SALE,August-21-2019,Vacant Land,428 Water Crest Ln,Glenn Heights,TX,75154,25000,0,,Lindell Estates,,10759,,512,,,Sold,,,http://www.redfin.com/TX/Glenn-Heights/428-Water-Crest-Ln-75154/home/33542393,NTREIS,14155688,N,Y,32.545105,-96.846571
PAST SALE,November-9-2020,Vacant Land,141 HOPEWELL Rd,Ennis,TX,75119,37900,0,,ENNIS EAST ESTATES,,38333,,66,,,Sold,,,http://www.redfin.com/TX/Ennis/141-Hopewell-Rd-75119/home/33614321,NTREIS,14418334,N,Y,32.310579,-96.467709
PAST SALE,November-13-2020,Vacant Land,1703 Westchester Dr,Ennis,TX,75119,35000,0,,Sleepy Hollow Estates,,16117,,62,,27,Sold,,,http://www.redfin.com/TX/Ennis/1703-Westchester-Dr-75119/home/103777802,NTREIS,14444435,N,Y,32.3461836,-96.6632373
PAST SALE,October-1-2019,Vacant Land,826 Meadow Lark Ln,Red Oak,TX,75154,80000,0,,Rock Creek Estates #3,,60113,,471,,,Sold,,,http://www.redfin.com/TX/Red-Oak/826-Meadow-Lark-Ln-75154/home/33624553,NTREIS,14137591,N,Y,32.5161006,-96.735195
PAST SALE,January-25-2019,Vacant Land,123 Pedigree,Red Oak,TX,75154,85000,0,,Shiloh Downs Ph I,,87556,,720,,55,Sold,,,http://www.redfin.com/TX/Red-Oak/123-Pedigree-Dr-75154/home/33625914,NTREIS,13996443,N,Y,32.507723,-96.750251
PAST SALE,January-2-2020,Vacant Land,459 Choice Dr,Palmer,TX,75152,49000,0,,Americas Choice Village Ph 3,,26136,,378,,,Sold,,,http://www.redfin.com/TX/Palmer/459-Choice-Dr-75152/home/110016840,NTREIS,14184856,N,Y,32.470526,-96.744518
PAST SALE,March-13-2019,Vacant Land,Lt 1603 Hardwick Ln,Midlothian,TX,76065,49900,,,Lake Ridge,,56410,,673,,25,Sold,,,http://www.redfin.com/TX/Midlothian/Lt-1603-Hardwick-Ln-76065/home/143830768,HARMLS,30899507,N,Y,32.540834,-97.00559
PAST SALE,December-9-2020,Vacant Land,990 E Ovilla Rd,Red Oak,TX,75154,175000,0,,M P Crum,,104108,1982,36,,,Sold,,,http://www.redfin.com/TX/Red-Oak/990-E-Ovilla-Rd-75154/home/33601888,NTREIS,14423495,N,Y,32.5300677,-96.7435763
PAST SALE,December-14-2020,Vacant Land,231 Dubose Way,Waxahachie,TX,75167,143000,0,,Maypearl Hidden Hills,,89559,,31,,75,Sold,,,http://www.redfin.com/TX/Waxahachie/231-DuBose-Way-75167/home/40160435,NTREIS,14469557,N,Y,32.323895,-96.968335
PAST SALE,January-20-2020,Vacant Land,716 N Church St,Ferris,TX,75125,20000,0,,Weatherford 1st,,7013,,360,,,Sold,,,http://www.redfin.com/TX/Ferris/716-N-Church-St-75125/home/33584089,NTREIS,14115270,N,Y,32.5408319,-96.6668817
PAST SALE,January-21-2020,Vacant Land,0 S Smith St,Ennis,TX,75119,20000,0,,Ennis-Dvv,,10280,,359,,,Sold,,,http://www.redfin.com/TX/Ennis/Smith-St-75119/home/173722316,NTREIS,14249829,N,Y,32.319054,-96.628149
PAST SALE,July-31-2020,Vacant Land,530 Orr Cir,Palmer,TX,75152,70000,0,,Green Acs North,,100798,,167,,,Sold,,,http://www.redfin.com/TX/Palmer/Orr-Cir-75152/home/33657478,NTREIS,14336315,N,Y,32.430694,-96.692305
PAST SALE,October-19-2020,Vacant Land,1703 Prestwick Ln,Ennis,TX,75119,32500,0,,Pinehurst Ph I,,5009,,87,,31,Sold,,,http://www.redfin.com/TX/Ennis/1703-Prestwick-Ln-75119/home/33551678,NTREIS,14433218,N,Y,32.344833,-96.660668
PAST SALE,October-20-2020,Vacant Land,Valek Rd,Ennis,TX,75119,65000,0,,T M Rowe,,41600,,86,,,Sold,,,http://www.redfin.com/TX/ENNIS/VALEK-RD-75119/home/161422094,NTREIS,14423271,N,Y,32.312136,-96.585705
PAST SALE,October-9-2020,Vacant Land,109 Oakmont Dr,Mabank,TX,75147,50000,0,,Oakmont,,56628,,97,,,Sold,,,http://www.redfin.com/TX/Mabank/109-Oakmont-DR-Unknown/home/173463545,NTREIS,14450810,N,Y,32.350164,-96.652136
PAST SALE,December-9-2020,Vacant Land,720 Valek Rd,Ennis,TX,75119,80000,0,,T M Rowe,,37897,,36,,,Sold,,,http://www.redfin.com/TX/Ennis/720-Valek-Rd-75119/home/33680761,NTREIS,14469855,N,Y,32.3123991,-96.5858976
PAST SALE,January-10-2020,Vacant Land,0 Joe Wilson,Midlothian,TX,76065,75000,0,,24 G G Alford,,124190,,370,,,Sold,,,http://www.redfin.com/TX/MIDLOTHIAN/JOE-WILSON-RD-76065/home/33687876,NTREIS,13761676,N,Y,32.543487,-96.925081
PAST SALE,July-12-2019,Vacant Land,Patrick Rd,Waxahachie,TX,75167,55000,0,,C H Hurst,,54014,,552,,,Sold,,,http://www.redfin.com/TX/WAXAHACHIE/PATRICK-RD-75167/home/33551405,NTREIS,14125300,N,Y,32.487827,-96.858834
PAST SALE,July-25-2019,Vacant Land,1010 Lariat Dr (Tract 1) Cir,Oak Leaf,TX,75154,90000,0,,I Hurst,,87120,,539,,,Sold,,,http://www.redfin.com/TX/Red-Oak/1010-Lariat-Cir-75154/home/38741237,NTREIS,13992649,N,Y,32.5078884,-96.8711421
PAST SALE,June-10-2019,Vacant Land,1216 E Highland Rd,Oak Leaf,TX,75154,109900,0,,Chapman Ranch II,,88383,,584,,,Sold,,,http://www.redfin.com/TX/Red-Oak/1216-E-Highland-Rd-75154/home/33610646,NTREIS,14075107,N,Y,32.503193,-96.853985
PAST SALE,December-11-2020,Vacant Land,4010 Wisteria Trl,Midlothian,TX,76065,144900,0,,Old Farmhouse Estates Sec II,,64904,,34,,25,Sold,,,http://www.redfin.com/TX/Midlothian/4010-Wisteria-Trl-76065/home/33687693,NTREIS,14467996,N,Y,32.5309944,-96.9429687
PAST SALE,July-20-2020,Vacant Land,131 Old Bridge Rd,Waxahachie,TX,75165,95000,0,,Estates Of Garden Valley,,14767,,178,,400,Sold,,,http://www.redfin.com/TX/Waxahachie/131-Old-Bridge-Rd-75165/home/110012632,NTREIS,13937089,N,Y,32.4200715,-96.8098287
